2013-04-09 00:03:53.725256;$GPGGA,000352.781,4530.3645,N,07334.5761,W,1,04,5.0,54.6,M,-31.9,M,,0000*54
2013-04-09 00:03:53.740275;$GPGSA,A,3,21,06,03,16,,,,,,,,,5.8,5.0,2.9*30
2013-04-09 00:03:53.763887;$GPRMC,000352.781,A,4530.3645,N,07334.5761,W,0.15,285.17,090413,,,A*74
2013-04-09 00:03:54.758128;$GPGGA,000353.781,4530.3645,N,07334.5762,W,1,04,5.0,54.6,M,-31.9,M,,0000*56
2013-04-09 00:03:54.770476;$GPGSA,A,3,21,06,03,16,,,,,,,,,5.8,5.0,2.9*30
2013-04-09 00:03:54.792591;$GPRMC,000353.781,A,4530.3645,N,07334.5762,W,0.14,283.70,090413,,,A*70
2013-04-09 00:03:55.759443;$GPGGA,000354.781,4530.3645,N,07334.5762,W,1,04,5.0,54.6,M,-31.9,M,,0000*51
2013-04-09 00:03:55.771961;$GPGSA,A,3,21,06,03,16,,,,,,,,,5.8,5.0,2.9*30
2013-04-09 00:03:55.786026;$GPGSV,3,1,11,19,70,151,,03,68,072,40,07,54,306,,06,48,058,44*79
2013-04-09 00:03:55.799153;$GPGSV,3,2,11,13,39,221,,16,33,071,39,08,24,308,,23,21,199,*7C
2013-04-09 00:03:55.818732;$GPGSV,3,3,11,11,16,170,,21,07,033,32,28,01,264,*46
2013-04-09 00:03:55.841345;$GPRMC,000354.781,A,4530.3645,N,07334.5762,W,0.13,289.25,090413,,,A*7A
2013-04-09 00:03:55.996937;$GPGGA,000355.781,4530.3644,N,07334.5762,W,1,04,5.0,54.6,M,-31.9,M,,0000*51
2013-04-09 00:03:56.106693;$GPGSA,A,3,21,06,03,16,,,,,,,,,5.8,5.0,2.9*30
2013-04-09 00:03:56.269204;$GPRMC,000355.781,A,4530.3644,N,07334.5762,W,0.14,290.34,090413,,,A*75
2013-04-09 00:03:57.758206;$GPGGA,000356.781,4530.3644,N,07334.5762,W,1,04,5.0,54.6,M,-31.9,M,,0000*52
2013-04-09 00:03:57.770752;$GPGSA,A,3,21,06,03,16,,,,,,,,,5.8,5.0,2.9*30
2013-04-09 00:03:57.785961;$GPRMC,000356.781,A,4530.3644,N,07334.5762,W,0.11,291.19,090413,,,A*7D
2013-04-09 00:03:58.758774;$GPGGA,000357.781,4530.3644,N,07334.5763,W,1,04,5.0,54.5,M,-31.9,M,,0000*51
2013-04-09 00:03:58.771306;$GPGSA,A,3,21,06,03,16,,,,,,,,,5.8,5.0,2.9*30
2013-04-09 00:03:58.786528;$GPRMC,000357.781,A,4530.3644,N,07334.5763,W,0.16,298.41,090413,,,A*7E
2013-04-09 00:03:59.759078;$GPGGA,000358.781,4530.3644,N,07334.5763,W,1,04,5.0,54.5,M,-31.9,M,,0000*5E
2013-04-09 00:03:59.771612;$GPGSA,A,3,21,06,03,16,,,,,,,,,5.8,5.0,2.9*30
2013-04-09 00:03:59.786793;$GPRMC,000358.781,A,4530.3644,N,07334.5763,W,0.12,288.37,090413,,,A*75
2013-04-09 00:04:00.759204;$GPGGA,000359.781,4530.3644,N,07334.5763,W,1,04,5.0,54.5,M,-31.9,M,,0000*5F
2013-04-09 00:04:00.771723;$GPGSA,A,3,21,06,03,16,,,,,,,,,5.8,5.0,2.9*30
2013-04-09 00:04:00.786078;$GPGSV,3,1,11,19,70,151,,03,68,072,40,07,54,306,,06,48,058,44*79
2013-04-09 00:04:00.799071;$GPGSV,3,2,11,13,39,221,,16,33,071,39,08,24,308,,23,21,199,*7C
2013-04-09 00:04:00.810053;$GPGSV,3,3,11,11,16,170,,21,07,033,32,28,01,264,*46
2013-04-09 00:04:00.824825;$GPRMC,000359.781,A,4530.3644,N,07334.5763,W,0.13,296.67,090413,,,A*7F
2013-04-09 00:04:01.758663;$GPGGA,000400.781,4530.3643,N,07334.5763,W,1,04,5.0,54.4,M,-31.9,M,,0000*52
2013-04-09 00:04:01.771268;$GPGSA,A,3,21,06,03,16,,,,,,,,,5.8,5.0,2.9*30
2013-04-09 00:04:01.786593;$GPRMC,000400.781,A,4530.3643,N,07334.5763,W,0.12,285.05,090413,,,A*74
2013-04-09 00:04:02.762705;$GPGGA,000401.781,4530.3643,N,07334.5764,W,1,04,5.0,54.4,M,-31.9,M,,0000*54
2013-04-09 00:04:02.774969;$GPGSA,A,3,21,06,03,16,,,,,,,,,5.8,5.0,2.9*30
2013-04-09 00:04:02.790503;$GPRMC,000401.781,A,4530.3643,N,07334.5764,W,0.12,288.18,090413,,,A*73
2013-04-09 00:04:03.743259;$GPGGA,000402.780,4530.3643,N,07334.5764,W,1,04,5.0,54.3,M,-31.9,M,,0000*51
2013-04-09 00:04:03.756601;$GPGSA,A,3,21,06,03,16,,,,,,,,,5.8,5.0,2.9*30
2013-04-09 00:04:03.771824;$GPRMC,000402.780,A,4530.3643,N,07334.5764,W,0.14,288.69,090413,,,A*71
2013-04-09 00:04:04.792410;$GPGGA,000403.781,4530.3642,N,07334.5764,W,1,04,5.0,54.3,M,-31.9,M,,0000*50
2013-04-09 00:04:04.805120;$GPGSA,A,3,21,06,03,16,,,,,,,,,5.8,5.0,2.9*30
2013-04-09 00:04:04.820274;$GPRMC,000403.781,A,4530.3642,N,07334.5764,W,0.16,267.74,090413,,,A*7F
2013-04-09 00:04:05.774238;$GPGGA,000404.781,4530.3642,N,07334.5765,W,1,04,5.0,54.2,M,-31.9,M,,0000*57
2013-04-09 00:04:05.808042;$GPGSA,A,3,21,06,03,16,,,,,,,,,5.8,5.0,2.9*30
2013-04-09 00:04:05.835014;$GPGSV,3,1,11,19,70,151,,03,68,072,41,07,54,306,,06,48,058,44*78
2013-04-09 00:04:05.858794;$GPGSV,3,2,11,13,39,221,,16,33,071,39,08,24,308,,23,21,199,*7C
2013-04-09 00:04:05.879864;$GPGSV,3,3,11,11,16,170,,21,07,033,31,28,01,264,*45
2013-04-09 00:04:05.895102;$GPRMC,000404.781,A,4530.3642,N,07334.5765,W,0.14,281.21,090413,,,A*73
2013-04-09 00:04:05.997187;$GPGGA,000405.781,4530.3642,N,07334.5765,W,1,04,5.0,54.1,M,-31.9,M,,0000*55
2013-04-09 00:04:06.106900;$GPGSA,A,3,21,06,03,16,,,,,,,,,5.8,5.0,2.9*30
2013-04-09 00:04:06.269399;$GPRMC,000405.781,A,4530.3642,N,07334.5765,W,0.15,280.37,090413,,,A*75
2013-04-09 00:04:07.759076;$GPGGA,000406.781,4530.3641,N,07334.5765,W,1,04,5.0,54.1,M,-31.9,M,,0000*55
2013-04-09 00:04:07.771640;$GPGSA,A,3,21,06,03,16,,,,,,,,,5.8,5.0,2.9*30
2013-04-09 00:04:07.786808;$GPRMC,000406.781,A,4530.3641,N,07334.5765,W,0.15,268.76,090413,,,A*76
2013-04-09 00:04:08.759009;$GPGGA,000407.781,4530.3641,N,07334.5765,W,1,04,5.0,54.0,M,-31.9,M,,0000*55
2013-04-09 00:04:08.771665;$GPGSA,A,3,21,06,03,16,,,,,,,,,5.8,5.0,2.9*30
2013-04-09 00:04:08.786935;$GPRMC,000407.781,A,4530.3641,N,07334.5765,W,0.13,281.43,090413,,,A*70
2013-04-09 00:04:09.759148;$GPGGA,000408.781,4530.3641,N,07334.5766,W,1,04,5.0,54.0,M,-31.9,M,,0000*59
2013-04-09 00:04:09.771720;$GPGSA,A,3,21,06,03,16,,,,,,,,,5.8,5.0,2.9*30
2013-04-09 00:04:09.787094;$GPRMC,000408.781,A,4530.3641,N,07334.5766,W,0.13,258.38,090413,,,A*74
2013-04-09 00:04:10.765875;$GPGGA,000409.781,4530.3640,N,07334.5766,W,1,04,5.0,53.9,M,-31.9,M,,0000*57
2013-04-09 00:04:10.778137;$GPGSA,A,3,21,06,03,16,,,,,,,,,5.8,5.0,2.9*30
2013-04-09 00:04:10.791930;$GPGSV,3,1,11,19,70,151,,03,68,072,41,07,54,306,,06,48,058,43*7F
2013-04-09 00:04:10.805630;$GPGSV,3,2,11,13,39,221,,16,33,071,39,08,24,308,,23,21,199,*7C
2013-04-09 00:04:10.816794;$GPGSV,3,3,11,11,16,170,,21,07,033,31,28,01,264,*45
2013-04-09 00:04:10.831613;$GPRMC,000409.781,A,4530.3640,N,07334.5766,W,0.15,269.94,090413,,,A*76
2013-04-09 00:04:10.997019;$GPGGA,000410.781,4530.3640,N,07334.5766,W,1,04,5.0,53.9,M,-31.9,M,,0000*5F
2013-04-09 00:04:11.106929;$GPGSA,A,3,21,06,03,16,,,,,,,,,5.8,5.0,2.9*30
2013-04-09 00:04:11.269167;$GPRMC,000410.781,A,4530.3640,N,07334.5766,W,0.15,265.77,090413,,,A*7F
2013-04-09 00:04:12.767494;$GPGGA,000411.781,4530.3640,N,07334.5766,W,1,04,5.0,53.8,M,-31.9,M,,0000*5F
2013-04-09 00:04:12.780111;$GPGSA,A,3,21,06,03,16,,,,,,,,,5.8,5.0,2.9*30
2013-04-09 00:04:12.795306;$GPRMC,000411.781,A,4530.3640,N,07334.5766,W,0.15,286.36,090413,,,A*76
2013-04-09 00:04:13.758677;$GPGGA,000412.781,4530.3640,N,07334.5766,W,1,04,5.0,53.8,M,-31.9,M,,0000*5C
2013-04-09 00:04:13.771263;$GPGSA,A,3,21,06,03,16,,,,,,,,,5.8,5.0,2.9*30
2013-04-09 00:04:13.786281;$GPRMC,000412.781,A,4530.3640,N,07334.5766,W,0.16,274.18,090413,,,A*77
2013-04-09 00:04:14.769392;$GPGGA,000413.781,4530.3639,N,07334.5766,W,1,04,5.0,53.8,M,-31.9,M,,0000*53
2013-04-09 00:04:14.782038;$GPGSA,A,3,21,06,03,16,,,,,,,,,5.8,5.0,2.9*30
2013-04-09 00:04:14.797365;$GPRMC,000413.781,A,4530.3639,N,07334.5766,W,0.14,272.79,090413,,,A*7B
2013-04-09 00:04:15.758928;$GPGGA,000414.781,4530.3639,N,07334.5766,W,1,04,5.0,53.8,M,-31.9,M,,0000*54
2013-04-09 00:04:15.774224;$GPGSA,A,3,21,06,03,16,,,,,,,,,5.8,5.0,2.9*30
2013-04-09 00:04:15.800707;$GPGSV,3,1,11,19,70,151,,03,68,072,41,07,54,306,,06,48,058,43*7F
2013-04-09 00:04:15.813808;$GPGSV,3,2,11,13,39,221,,16,33,071,39,08,24,308,,23,21,199,*7C
2013-04-09 00:04:15.824818;$GPGSV,3,3,11,11,16,170,,21,07,033,32,28,01,264,*46
2013-04-09 00:04:15.840339;$GPRMC,000414.781,A,4530.3639,N,07334.5766,W,0.13,282.03,090413,,,A*79
2013-04-09 00:04:15.996707;$GPGGA,000415.781,4530.3639,N,07334.5766,W,1,04,5.0,53.8,M,-31.9,M,,0000*55
2013-04-09 00:04:16.106465;$GPGSA,A,3,21,06,03,16,,,,,,,,,5.8,5.0,2.9*30
2013-04-09 00:04:16.268840;$GPRMC,000415.781,A,4530.3639,N,07334.5766,W,0.15,278.15,090413,,,A*7C
2013-04-09 00:04:17.759260;$GPGGA,000416.781,4530.3639,N,07334.5766,W,1,04,5.0,53.7,M,-31.9,M,,0000*59
2013-04-09 00:04:17.771887;$GPGSA,A,3,21,06,03,16,,,,,,,,,5.8,5.0,2.9*30
2013-04-09 00:04:17.787382;$GPRMC,000416.781,A,4530.3639,N,07334.5766,W,0.16,270.93,090413,,,A*7A
2013-04-09 00:04:18.759103;$GPGGA,000417.781,4530.3639,N,07334.5767,W,1,04,5.0,53.7,M,-31.9,M,,0000*59
2013-04-09 00:04:18.781479;$GPGSA,A,3,21,06,03,16,,,,,,,,,5.8,5.0,2.9*30
2013-04-09 00:04:18.796902;$GPRMC,000417.781,A,4530.3639,N,07334.5767,W,0.15,271.86,090413,,,A*7C
2013-04-09 00:04:19.759064;$GPGGA,000418.781,4530.3639,N,07334.5767,W,1,04,5.0,53.6,M,-31.9,M,,0000*57
2013-04-09 00:04:19.771695;$GPGSA,A,3,21,06,03,16,,,,,,,,,5.8,5.0,2.9*30
2013-04-09 00:04:19.786965;$GPRMC,000418.781,A,4530.3639,N,07334.5767,W,0.16,259.70,090413,,,A*73
2013-04-09 00:04:20.777307;$GPGGA,000419.781,4530.3639,N,07334.5767,W,1,04,5.0,53.6,M,-31.9,M,,0000*56
2013-04-09 00:04:20.789895;$GPGSA,A,3,21,06,03,16,,,,,,,,,5.8,5.0,2.9*30
2013-04-09 00:04:20.803990;$GPGSV,3,1,11,19,70,151,,03,68,072,41,07,54,306,,06,48,058,42*7E
2013-04-09 00:04:20.817084;$GPGSV,3,2,11,13,39,221,,16,33,071,39,08,24,308,,23,21,199,*7C
2013-04-09 00:04:20.828078;$GPGSV,3,3,11,11,16,170,,21,07,033,32,28,01,264,*46
2013-04-09 00:04:20.842891;$GPRMC,000419.781,A,4530.3639,N,07334.5767,W,0.16,266.09,090413,,,A*70
2013-04-09 00:04:20.997087;$GPGGA,000420.781,4530.3639,N,07334.5767,W,1,04,5.0,53.6,M,-31.9,M,,0000*5C
2013-04-09 00:04:21.106747;$GPGSA,A,3,21,06,03,16,,,,,,,,,5.8,5.0,2.9*30
2013-04-09 00:04:21.269152;$GPRMC,000420.781,A,4530.3639,N,07334.5767,W,0.15,265.95,090413,,,A*7F
2013-04-09 00:04:22.777993;$GPGGA,000421.781,4530.3639,N,07334.5767,W,1,04,5.0,53.6,M,-31.9,M,,0000*5D
2013-04-09 00:04:22.800127;$GPGSA,A,3,21,06,03,16,,,,,,,,,5.8,5.0,2.9*30
2013-04-09 00:04:22.835373;$GPRMC,000421.781,A,4530.3639,N,07334.5767,W,0.16,271.95,090413,,,A*78
2013-04-09 00:04:22.997895;$GPGGA,000422.781,4530.3639,N,07334.5767,W,1,04,5.0,53.6,M,-31.9,M,,0000*5E
2013-04-09 00:04:23.107570;$GPGSA,A,3,21,06,03,16,,,,,,,,,5.8,5.0,2.9*30
2013-04-09 00:04:23.269941;$GPRMC,000422.781,A,4530.3639,N,07334.5767,W,0.15,268.99,090413,,,A*7C
2013-04-09 00:04:24.773177;$GPGGA,000423.781,4530.3639,N,07334.5766,W,1,04,5.0,53.6,M,-31.9,M,,0000*5E
2013-04-09 00:04:24.785748;$GPGSA,A,3,21,06,03,16,,,,,,,,,5.8,5.0,2.9*30
2013-04-09 00:04:24.800344;$GPRMC,000423.781,A,4530.3639,N,07334.5766,W,0.16,272.99,090413,,,A*74
2013-04-09 00:04:25.785844;$GPGGA,000424.781,4530.3640,N,07334.5766,W,1,04,5.0,53.7,M,-31.9,M,,0000*56
2013-04-09 00:04:25.798467;$GPGSA,A,3,21,06,03,16,,,,,,,,,5.8,5.0,2.9*30
2013-04-09 00:04:25.812054;$GPGSV,3,1,11,19,70,151,,03,68,072,41,07,54,306,,06,48,058,41*7D
2013-04-09 00:04:25.825723;$GPGSV,3,2,11,13,39,221,,16,33,071,39,08,24,308,,23,21,199,*7C
2013-04-09 00:04:25.836911;$GPGSV,3,3,11,11,16,170,,21,07,033,33,28,01,264,*47
2013-04-09 00:04:25.851841;$GPRMC,000424.781,A,4530.3640,N,07334.5766,W,0.13,258.66,090413,,,A*70
2013-04-09 00:04:25.997256;$GPGGA,000425.781,4530.3639,N,07334.5766,W,1,04,5.0,53.6,M,-31.9,M,,0000*58
2013-04-09 00:04:26.106934;$GPGSA,A,3,21,06,03,16,,,,,,,,,5.8,5.0,2.9*30
2013-04-09 00:04:26.269243;$GPRMC,000425.781,A,4530.3639,N,07334.5766,W,0.19,254.58,090413,,,A*74
2013-04-09 00:04:27.758744;$GPGGA,000426.781,4530.3640,N,07334.5766,W,1,04,5.0,53.7,M,-31.9,M,,0000*54
2013-04-09 00:04:27.771333;$GPGSA,A,3,21,06,03,16,,,,,,,,,5.8,5.0,2.9*30
2013-04-09 00:04:27.786016;$GPRMC,000426.781,A,4530.3640,N,07334.5766,W,0.15,269.62,090413,,,A*72
2013-04-09 00:04:28.769226;$GPGGA,000427.781,4530.3640,N,07334.5766,W,1,04,5.0,53.7,M,-31.9,M,,0000*55
2013-04-09 00:04:28.781868;$GPGSA,A,3,21,06,03,16,,,,,,,,,5.8,5.0,2.9*30
2013-04-09 00:04:28.797271;$GPRMC,000427.781,A,4530.3640,N,07334.5766,W,0.16,265.54,090413,,,A*79
2013-04-09 00:04:29.758961;$GPGGA,000428.781,4530.3640,N,07334.5765,W,1,04,5.0,53.7,M,-31.9,M,,0000*59
2013-04-09 00:04:29.780857;$GPGSA,A,3,21,06,03,16,,,,,,,,,5.8,5.0,2.9*30
2013-04-09 00:04:29.802694;$GPRMC,000428.781,A,4530.3640,N,07334.5765,W,0.13,258.07,090413,,,A*78
2013-04-09 00:04:30.759196;$GPGGA,000429.781,4530.3640,N,07334.5765,W,1,04,5.0,53.8,M,-31.9,M,,0000*57
2013-04-09 00:04:30.771849;$GPGSA,A,3,21,06,03,16,,,,,,,,,5.8,5.0,2.9*30
2013-04-09 00:04:30.786133;$GPGSV,3,1,11,19,70,151,,03,68,072,41,07,54,306,,06,48,058,42*7E
2013-04-09 00:04:30.808759;$GPGSV,3,2,11,13,39,221,,16,33,071,39,08,24,308,,23,21,199,*7C
2013-04-09 00:04:30.826878;$GPGSV,3,3,11,11,16,170,,21,07,033,33,28,01,264,*47
2013-04-09 00:04:30.842175;$GPRMC,000429.781,A,4530.3640,N,07334.5765,W,0.17,266.11,090413,,,A*77
2013-04-09 00:04:30.997634;$GPGGA,000430.781,4530.3641,N,07334.5765,W,1,04,5.0,53.8,M,-31.9,M,,0000*5E
2013-04-09 00:04:31.106855;$GPGSA,A,3,21,06,03,16,,,,,,,,,5.8,5.0,2.9*30
2013-04-09 00:04:31.269166;$GPRMC,000430.781,A,4530.3641,N,07334.5765,W,0.16,267.80,090413,,,A*76
2013-04-09 00:04:32.758927;$GPGGA,000431.781,4530.3641,N,07334.5764,W,1,04,5.0,53.9,M,-31.9,M,,0000*5F
2013-04-09 00:04:32.771554;$GPGSA,A,3,21,06,03,16,,,,,,,,,5.8,5.0,2.9*30
2013-04-09 00:04:32.786924;$GPRMC,000431.781,A,4530.3641,N,07334.5764,W,0.13,267.36,090413,,,A*7E
2013-04-09 00:04:33.759160;$GPGGA,000432.780,4530.3641,N,07334.5764,W,1,04,5.0,53.9,M,-31.9,M,,0000*5D
2013-04-09 00:04:33.771982;$GPGSA,A,3,21,06,03,16,,,,,,,,,5.8,5.0,2.9*30
2013-04-09 00:04:33.787242;$GPRMC,000432.780,A,4530.3641,N,07334.5764,W,0.15,262.11,090413,,,A*7A
2013-04-09 00:04:34.758836;$GPGGA,000433.780,4530.3641,N,07334.5764,W,1,04,5.0,53.9,M,-31.9,M,,0000*5C
2013-04-09 00:04:34.771553;$GPGSA,A,3,21,06,03,16,,,,,,,,,5.8,5.0,2.9*30
2013-04-09 00:04:34.786698;$GPRMC,000433.780,A,4530.3641,N,07334.5764,W,0.15,257.74,090413,,,A*7E
2013-04-09 00:04:35.759350;$GPGGA,000434.780,4530.3641,N,07334.5763,W,1,04,5.0,53.9,M,-31.9,M,,0000*5C
2013-04-09 00:04:35.771883;$GPGSA,A,3,21,06,03,16,,,,,,,,,5.8,5.0,2.9*30
2013-04-09 00:04:35.785856;$GPGSV,3,1,11,19,70,151,,03,68,072,41,07,54,306,,06,48,058,42*7E
2013-04-09 00:04:35.799141;$GPGSV,3,2,11,13,39,221,,16,33,071,39,08,24,308,,23,21,199,*7C
2013-04-09 00:04:35.810052;$GPGSV,3,3,11,11,16,170,,21,07,033,33,28,01,264,*47
2013-04-09 00:04:35.824829;$GPRMC,000434.780,A,4530.3641,N,07334.5763,W,0.17,259.51,090413,,,A*75
2013-04-09 00:04:36.744159;$GPGGA,000435.780,4530.3641,N,07334.5763,W,1,04,5.0,54.0,M,-31.9,M,,0000*53
2013-04-09 00:04:36.757004;$GPGSA,A,3,21,06,03,16,,,,,,,,,5.8,5.0,2.9*30
2013-04-09 00:04:36.771716;$GPRMC,000435.780,A,4530.3641,N,07334.5763,W,0.14,258.67,090413,,,A*73
2013-04-09 00:04:37.782188;$GPGGA,000436.780,4530.3642,N,07334.5763,W,1,04,5.0,54.0,M,-31.9,M,,0000*53
2013-04-09 00:04:37.810202;$GPGSA,A,3,21,06,03,16,,,,,,,,,5.8,5.0,2.9*30
2013-04-09 00:04:37.825053;$GPRMC,000436.780,A,4530.3642,N,07334.5763,W,0.16,264.15,090413,,,A*7B
2013-04-09 00:04:38.758640;$GPGGA,000437.780,4530.3642,N,07334.5762,W,1,04,5.0,54.0,M,-31.9,M,,0000*53
2013-04-09 00:04:38.771508;$GPGSA,A,3,21,06,03,16,,,,,,,,,5.8,5.0,2.9*30
2013-04-09 00:04:38.786792;$GPRMC,000437.780,A,4530.3642,N,07334.5762,W,0.14,266.31,090413,,,A*7D
2013-04-09 00:04:39.759154;$GPGGA,000438.780,4530.3642,N,07334.5762,W,1,04,5.0,54.1,M,-31.9,M,,0000*5D
2013-04-09 00:04:39.771809;$GPGSA,A,3,21,06,03,16,,,,,,,,,5.8,5.0,2.9*30
2013-04-09 00:04:39.787001;$GPRMC,000438.780,A,4530.3642,N,07334.5762,W,0.15,269.79,090413,,,A*70
2013-04-09 00:04:40.758998;$GPGGA,000439.780,4530.3642,N,07334.5762,W,1,04,5.0,54.1,M,-31.9,M,,0000*5C
2013-04-09 00:04:40.771524;$GPGSA,A,3,21,06,03,16,,,,,,,,,5.8,5.0,2.9*30
2013-04-09 00:04:40.785480;$GPGSV,3,1,11,19,70,151,,03,68,072,42,07,54,306,,06,48,058,43*7C
2013-04-09 00:04:40.798517;$GPGSV,3,2,11,13,39,221,,16,33,071,39,08,24,308,,23,21,199,*7C
2013-04-09 00:04:40.809416;$GPGSV,3,3,11,11,16,170,,21,07,033,33,28,01,264,*47
2013-04-09 00:04:40.824290;$GPRMC,000439.780,A,4530.3642,N,07334.5762,W,0.16,271.39,090413,,,A*7F
2013-04-09 00:04:41.758152;$GPGGA,000440.780,4530.3642,N,07334.5761,W,1,04,5.0,54.1,M,-31.9,M,,0000*51
2013-04-09 00:04:41.770763;$GPGSA,A,3,21,06,03,16,,,,,,,,,5.8,5.0,2.9*30
2013-04-09 00:04:41.785996;$GPRMC,000440.780,A,4530.3642,N,07334.5761,W,0.13,263.56,090413,,,A*7D
2013-04-09 00:04:42.758662;$GPGGA,000441.780,4530.3643,N,07334.5761,W,1,04,5.0,54.2,M,-31.9,M,,0000*52
2013-04-09 00:04:42.771386;$GPGSA,A,3,21,06,03,16,,,,,,,,,5.8,5.0,2.9*30
2013-04-09 00:04:42.786573;$GPRMC,000441.780,A,4530.3643,N,07334.5761,W,0.16,268.81,090413,,,A*79
2013-04-09 00:04:43.758943;$GPGGA,000442.780,4530.3643,N,07334.5760,W,1,04,5.0,54.2,M,-31.9,M,,0000*50
2013-04-09 00:04:43.771604;$GPGSA,A,3,21,06,03,16,,,,,,,,,5.8,5.0,2.9*30
2013-04-09 00:04:43.787123;$GPRMC,000442.780,A,4530.3643,N,07334.5760,W,0.12,274.09,090413,,,A*72
2013-04-09 00:04:44.758757;$GPGGA,000443.780,4530.3643,N,07334.5760,W,1,04,5.0,54.3,M,-31.9,M,,0000*50
2013-04-09 00:04:44.771279;$GPGSA,A,3,21,06,03,16,,,,,,,,,5.8,5.0,2.9*30
2013-04-09 00:04:44.786575;$GPRMC,000443.780,A,4530.3643,N,07334.5760,W,0.14,286.09,090413,,,A*78
2013-04-09 00:04:45.759001;$GPGGA,000444.780,4530.3643,N,07334.5759,W,1,04,5.0,54.3,M,-31.9,M,,0000*5D
2013-04-09 00:04:45.771446;$GPGSA,A,3,21,06,03,16,,,,,,,,,5.8,5.0,2.9*30
2013-04-09 00:04:45.785484;$GPGSV,3,1,11,19,70,151,,03,68,072,42,07,54,306,,06,48,058,43*7C
2013-04-09 00:04:45.798506;$GPGSV,3,2,11,13,39,221,,16,33,071,39,08,24,308,,23,21,199,*7C
2013-04-09 00:04:45.809422;$GPGSV,3,3,11,11,16,170,,21,07,033,33,28,01,264,*47
2013-04-09 00:04:45.823990;$GPRMC,000444.780,A,4530.3643,N,07334.5759,W,0.13,278.51,090413,,,A*7E
2013-04-09 00:04:46.762836;$GPGGA,000445.780,4530.3643,N,07334.5759,W,1,04,5.0,54.3,M,-31.9,M,,0000*5C
2013-04-09 00:04:46.775579;$GPGSA,A,3,21,06,03,16,,,,,,,,,5.8,5.0,2.9*30
2013-04-09 00:04:46.790781;$GPRMC,000445.780,A,4530.3643,N,07334.5759,W,0.15,268.69,090413,,,A*73
2013-04-09 00:04:47.801721;$GPGGA,000446.780,4530.3643,N,07334.5758,W,1,04,5.0,54.3,M,-31.9,M,,0000*5E
2013-04-09 00:04:47.814397;$GPGSA,A,3,21,06,03,16,,,,,,,,,5.8,5.0,2.9*30
2013-04-09 00:04:47.829181;$GPRMC,000446.780,A,4530.3643,N,07334.5758,W,0.13,262.83,090413,,,A*79
2013-04-09 00:04:48.758920;$GPGGA,000447.780,4530.3643,N,07334.5758,W,1,04,5.0,54.3,M,-31.9,M,,0000*5F
2013-04-09 00:04:48.781701;$GPGSA,A,3,21,06,03,16,,,,,,,,,5.8,5.0,2.9*30
2013-04-09 00:04:48.804266;$GPRMC,000447.780,A,4530.3643,N,07334.5758,W,0.16,268.70,090413,,,A*7B
2013-04-09 00:04:49.758984;$GPGGA,000448.780,4530.3644,N,07334.5757,W,1,04,5.0,54.4,M,-31.9,M,,0000*5F
2013-04-09 00:04:49.771489;$GPGSA,A,3,21,06,03,16,,,,,,,,,5.8,5.0,2.9*30
2013-04-09 00:04:49.786697;$GPRMC,000448.780,A,4530.3644,N,07334.5757,W,0.16,271.21,090413,,,A*70
2013-04-09 00:04:50.759496;$GPGGA,000449.780,4530.3644,N,07334.5757,W,1,04,5.0,54.4,M,-31.9,M,,0000*5E
2013-04-09 00:04:50.771981;$GPGSA,A,3,21,06,03,16,,,,,,,,,5.8,5.0,2.9*30
2013-04-09 00:04:50.786105;$GPGSV,3,1,11,19,70,151,,03,68,072,41,07,54,306,,06,48,058,43*7F
2013-04-09 00:04:50.799299;$GPGSV,3,2,11,13,39,221,,16,33,071,39,08,24,308,,23,21,199,*7C
2013-04-09 00:04:50.810151;$GPGSV,3,3,11,11,16,170,,21,07,033,33,28,01,264,*47
2013-04-09 00:04:50.824917;$GPRMC,000449.780,A,4530.3644,N,07334.5757,W,0.15,262.30,090413,,,A*70
2013-04-09 00:04:51.758886;$GPGGA,000450.780,4530.3644,N,07334.5757,W,1,04,5.0,54.4,M,-31.9,M,,0000*56
2013-04-09 00:04:51.771767;$GPGSA,A,3,21,06,03,16,,,,,,,,,5.8,5.0,2.9*30
2013-04-09 00:04:51.786996;$GPRMC,000450.780,A,4530.3644,N,07334.5757,W,0.15,267.88,090413,,,A*7E
2013-04-09 00:04:52.758997;$GPGGA,000451.780,4530.3644,N,07334.5756,W,1,04,5.0,54.4,M,-31.9,M,,0000*56
2013-04-09 00:04:52.771520;$GPGSA,A,3,21,06,03,16,,,,,,,,,5.8,5.0,2.9*30
2013-04-09 00:04:52.786800;$GPRMC,000451.780,A,4530.3644,N,07334.5756,W,0.13,273.81,090413,,,A*74
2013-04-09 00:04:53.759000;$GPGGA,000452.781,4530.3644,N,07334.5756,W,1,04,5.0,54.4,M,-31.9,M,,0000*54
2013-04-09 00:04:53.771246;$GPGSA,A,3,21,06,03,16,,,,,,,,,5.8,5.0,2.9*30
2013-04-09 00:04:53.786669;$GPRMC,000452.781,A,4530.3644,N,07334.5756,W,0.14,253.45,090413,,,A*7B
2013-04-09 00:04:54.759300;$GPGGA,000453.781,4530.3644,N,07334.5756,W,1,04,5.0,54.4,M,-31.9,M,,0000*55
2013-04-09 00:04:54.771824;$GPGSA,A,3,21,06,03,16,,,,,,,,,5.8,5.0,2.9*30
2013-04-09 00:04:54.787047;$GPRMC,000453.781,A,4530.3644,N,07334.5756,W,0.14,271.66,090413,,,A*7B
2013-04-09 00:04:55.758875;$GPGGA,000454.781,4530.3644,N,07334.5755,W,1,04,5.0,54.4,M,-31.9,M,,0000*51
2013-04-09 00:04:55.771580;$GPGSA,A,3,21,06,03,16,,,,,,,,,5.8,5.0,2.9*30
2013-04-09 00:04:55.785703;$GPGSV,3,1,11,19,70,151,,03,68,072,41,07,54,306,,06,48,058,43*7F
2013-04-09 00:04:55.798818;$GPGSV,3,2,11,13,39,221,,16,33,071,40,08,24,308,,23,21,199,*72
2013-04-09 00:04:55.809691;$GPGSV,3,3,11,11,16,170,,21,07,033,33,28,01,264,*47
2013-04-09 00:04:55.824767;$GPRMC,000454.781,A,4530.3644,N,07334.5755,W,0.16,266.72,090413,,,A*7E
2013-04-09 00:04:56.759114;$GPGGA,000455.781,4530.3644,N,07334.5755,W,1,04,5.0,54.5,M,-31.9,M,,0000*51
2013-04-09 00:04:56.771643;$GPGSA,A,3,21,06,03,16,,,,,,,,,5.8,5.0,2.9*30
2013-04-09 00:04:56.787001;$GPRMC,000455.781,A,4530.3644,N,07334.5755,W,0.16,269.14,090413,,,A*70
2013-04-09 00:04:57.788271;$GPGGA,000456.781,4530.3644,N,07334.5755,W,1,04,5.0,54.5,M,-31.9,M,,0000*52
2013-04-09 00:04:57.800839;$GPGSA,A,3,21,06,03,16,,,,,,,,,5.8,5.0,2.9*30
2013-04-09 00:04:57.816315;$GPRMC,000456.781,A,4530.3644,N,07334.5755,W,0.15,262.00,090413,,,A*7E
2013-04-09 00:04:58.737004;$GPGGA,000457.781,4530.3645,N,07334.5755,W,1,04,5.0,54.5,M,-31.9,M,,0000*52
2013-04-09 00:04:58.761682;$GPGSA,A,3,21,06,03,16,,,,,,,,,5.8,5.0,2.9*30
2013-04-09 00:04:58.797516;$GPRMC,000457.781,A,4530.3645,N,07334.5755,W,0.18,266.33,090413,,,A*77
2013-04-09 00:04:59.779628;$GPGGA,000458.781,4530.3645,N,07334.5755,W,1,04,5.0,54.5,M,-31.9,M,,0000*5D
2013-04-09 00:04:59.792240;$GPGSA,A,3,21,06,03,16,,,,,,,,,5.8,5.0,2.9*30
2013-04-09 00:04:59.807627;$GPRMC,000458.781,A,4530.3645,N,07334.5755,W,0.15,259.84,090413,,,A*75
2013-04-09 00:05:00.767115;$GPGGA,000459.781,4530.3645,N,07334.5755,W,1,04,5.0,54.5,M,-31.9,M,,0000*5C
2013-04-09 00:05:00.779542;$GPGSA,A,3,21,06,03,16,,,,,,,,,5.8,5.0,2.9*30
2013-04-09 00:05:00.793217;$GPGSV,3,1,11,19,70,151,,03,68,072,41,07,54,306,,06,48,058,43*7F
2013-04-09 00:05:00.806824;$GPGSV,3,2,11,13,39,221,,16,33,071,40,08,24,308,,23,21,199,*72
2013-04-09 00:05:00.817701;$GPGSV,3,3,11,11,16,170,,21,07,033,33,28,01,264,*47
2013-04-09 00:05:00.832418;$GPRMC,000459.781,A,4530.3645,N,07334.5755,W,0.15,265.05,090413,,,A*72
2013-04-09 00:05:00.994783;$GPGGA,000500.781,4530.3645,N,07334.5755,W,1,04,5.0,54.6,M,-31.9,M,,0000*52
2013-04-09 00:05:01.104376;$GPGSA,A,3,21,06,03,16,,,,,,,,,5.8,5.0,2.9*30
2013-04-09 00:05:01.266616;$GPRMC,000500.781,A,4530.3645,N,07334.5755,W,0.19,252.73,090413,,,A*76
2013-04-09 00:05:02.768854;$GPGGA,000501.781,4530.3645,N,07334.5755,W,1,04,5.0,54.6,M,-31.9,M,,0000*53
2013-04-09 00:05:02.793852;$GPGSA,A,3,21,06,03,16,,,,,,,,,5.8,5.0,2.9*30
2013-04-09 00:05:02.819773;$GPRMC,000501.781,A,4530.3645,N,07334.5755,W,0.15,263.68,090413,,,A*73
2013-04-09 00:05:03.758945;$GPGGA,000502.780,4530.3645,N,07334.5755,W,1,04,5.0,54.6,M,-31.9,M,,0000*51
2013-04-09 00:05:03.780658;$GPGSA,A,3,21,06,03,16,,,,,,,,,5.8,5.0,2.9*30
2013-04-09 00:05:03.802431;$GPRMC,000502.780,A,4530.3645,N,07334.5755,W,0.17,271.26,090413,,,A*7A
2013-04-09 00:05:04.758723;$GPGGA,000503.781,4530.3645,N,07334.5755,W,1,04,5.0,54.6,M,-31.9,M,,0000*51
2013-04-09 00:05:04.770930;$GPGSA,A,3,21,06,03,16,,,,,,,,,5.8,5.0,2.9*30
2013-04-09 00:05:04.786583;$GPRMC,000503.781,A,4530.3645,N,07334.5755,W,0.15,268.15,090413,,,A*70
2013-04-09 00:05:05.759239;$GPGGA,000504.781,4530.3645,N,07334.5755,W,1,04,5.0,54.6,M,-31.9,M,,0000*56
2013-04-09 00:05:05.771632;$GPGSA,A,3,21,06,03,16,,,,,,,,,5.8,5.0,2.9*30
2013-04-09 00:05:05.785673;$GPGSV,3,1,11,19,70,151,,03,68,072,40,07,54,306,,06,48,058,43*7E
2013-04-09 00:05:05.798888;$GPGSV,3,2,11,13,39,221,,16,33,071,41,08,24,308,,23,21,199,*73
2013-04-09 00:05:05.809835;$GPGSV,3,3,11,11,16,170,,21,07,033,33,28,01,264,*47
2013-04-09 00:05:05.833129;$GPRMC,000504.781,A,4530.3645,N,07334.5755,W,0.16,260.81,090413,,,A*71
2013-04-09 00:05:05.994636;$GPGGA,000505.781,4530.3646,N,07334.5755,W,1,04,5.0,54.7,M,-31.9,M,,0000*55
2013-04-09 00:05:06.104351;$GPGSA,A,3,21,06,03,16,,,,,,,,,5.8,5.0,2.9*30
2013-04-09 00:05:06.266723;$GPRMC,000505.781,A,4530.3646,N,07334.5755,W,0.16,259.83,090413,,,A*7B
2013-04-09 00:05:07.758484;$GPGGA,000506.781,4530.3646,N,07334.5756,W,1,04,5.0,54.7,M,-31.9,M,,0000*55
2013-04-09 00:05:07.771057;$GPGSA,A,3,21,06,03,16,,,,,,,,,5.8,5.0,2.9*30
2013-04-09 00:05:07.786323;$GPRMC,000506.781,A,4530.3646,N,07334.5756,W,0.19,273.61,090413,,,A*70
2013-04-09 00:05:08.741855;$GPGGA,000507.781,4530.3646,N,07334.5756,W,1,04,5.0,54.8,M,-31.9,M,,0000*5B
2013-04-09 00:05:08.754513;$GPGSA,A,3,21,06,03,16,,,,,,,,,5.8,5.0,2.9*30
2013-04-09 00:05:08.770269;$GPRMC,000507.781,A,4530.3646,N,07334.5756,W,0.19,265.40,090413,,,A*75
2013-04-09 00:05:09.791577;$GPGGA,000508.781,4530.3647,N,07334.5756,W,1,04,5.0,54.8,M,-31.9,M,,0000*55
2013-04-09 00:05:09.805819;$GPGSA,A,3,21,06,03,16,,,,,,,,,5.8,5.0,2.9*30
2013-04-09 00:05:09.820528;$GPRMC,000508.781,A,4530.3647,N,07334.5756,W,0.18,269.59,090413,,,A*7E
2013-04-09 00:05:10.765115;$GPGGA,000509.781,4530.3647,N,07334.5756,W,1,04,5.0,54.9,M,-31.9,M,,0000*55
2013-04-09 00:05:10.788267;$GPGSA,A,3,21,06,03,16,,,,,,,,,5.8,5.0,2.9*30
2013-04-09 00:05:10.810465;$GPGSV,3,1,11,19,70,151,,03,68,072,41,07,54,306,,06,48,058,42*7E
2013-04-09 00:05:10.840347;$GPGSV,3,2,11,13,39,221,,16,33,071,41,08,24,308,,23,21,199,*73
2013-04-09 00:05:10.861529;$GPGSV,3,3,11,11,16,170,,21,07,033,33,28,01,264,*47
2013-04-09 00:05:10.896605;$GPRMC,000509.781,A,4530.3647,N,07334.5756,W,0.14,270.29,090413,,,A*7C
2013-04-09 00:05:10.994949;$GPGGA,000510.781,4530.3647,N,07334.5756,W,1,04,5.0,54.9,M,-31.9,M,,0000*5D
2013-04-09 00:05:11.104413;$GPGSA,A,3,21,06,03,16,,,,,,,,,5.8,5.0,2.9*30
2013-04-09 00:05:11.266817;$GPRMC,000510.781,A,4530.3647,N,07334.5756,W,0.17,271.39,090413,,,A*77
2013-04-09 00:05:12.758740;$GPGGA,000511.781,4530.3648,N,07334.5756,W,1,04,5.0,55.0,M,-31.9,M,,0000*5B
2013-04-09 00:05:12.771435;$GPGSA,A,3,21,06,03,16,,,,,,,,,5.8,5.0,2.9*30
2013-04-09 00:05:12.786749;$GPRMC,000511.781,A,4530.3648,N,07334.5756,W,0.15,278.29,090413,,,A*73
2013-04-09 00:05:13.759067;$GPGGA,000512.781,4530.3648,N,07334.5756,W,1,04,5.0,55.1,M,-31.9,M,,0000*59
2013-04-09 00:05:13.985858;$GPGSA,A,3,21,06,03,16,,,,,,,,,5.8,5.0,2.9*30
2013-04-09 00:05:14.011780;$GPRMC,000512.781,A,4530.3648,N,07334.5756,W,0.14,271.49,090413,,,A*7E
2013-04-09 00:05:14.064940;$GPGGA,000513.781,4530.3649,N,07334.5756,W,1,04,5.0,55.2,M,-31.9,M,,0000*5A
2013-04-09 00:05:14.104567;$GPGSA,A,3,21,06,03,16,,,,,,,,,5.8,5.0,2.9*30
2013-04-09 00:05:14.266778;$GPRMC,000513.781,A,4530.3649,N,07334.5756,W,0.14,276.39,090413,,,A*7E
2013-04-09 00:05:15.758720;$GPGGA,000514.781,4530.3649,N,07334.5756,W,1,04,5.0,55.2,M,-31.9,M,,0000*5D
2013-04-09 00:05:15.771312;$GPGSA,A,3,21,06,03,16,,,,,,,,,5.8,5.0,2.9*30
2013-04-09 00:05:15.785259;$GPGSV,3,1,11,19,70,151,,03,68,072,41,07,54,306,,06,48,058,42*7E
2013-04-09 00:05:15.798350;$GPGSV,3,2,11,13,39,221,,16,33,071,41,08,24,308,,23,21,199,*73
2013-04-09 00:05:15.809315;$GPGSV,3,3,11,11,16,170,,21,07,033,33,28,01,264,*47
2013-04-09 00:05:15.824019;$GPRMC,000514.781,A,4530.3649,N,07334.5756,W,0.15,260.16,090413,,,A*72
2013-04-09 00:05:16.758924;$GPGGA,000515.781,4530.3650,N,07334.5756,W,1,04,5.0,55.3,M,-31.9,M,,0000*55
2013-04-09 00:05:16.771504;$GPGSA,A,3,21,06,03,16,,,,,,,,,5.8,5.0,2.9*30
2013-04-09 00:05:16.786820;$GPRMC,000515.781,A,4530.3650,N,07334.5756,W,0.16,263.82,090413,,,A*76
2013-04-09 00:05:17.758940;$GPGGA,000516.781,4530.3650,N,07334.5756,W,1,04,5.0,55.4,M,-31.9,M,,0000*51
2013-04-09 00:05:17.771505;$GPGSA,A,3,21,06,03,16,,,,,,,,,5.8,5.0,2.9*30
2013-04-09 00:05:17.786942;$GPRMC,000516.781,A,4530.3650,N,07334.5756,W,0.16,269.23,090413,,,A*74
2013-04-09 00:05:18.758812;$GPGGA,000517.781,4530.3651,N,07334.5756,W,1,04,5.0,55.5,M,-31.9,M,,0000*50
2013-04-09 00:05:18.771405;$GPGSA,A,3,21,06,03,16,,,,,,,,,5.8,5.0,2.9*30
2013-04-09 00:05:18.786663;$GPRMC,000517.781,A,4530.3651,N,07334.5756,W,0.15,266.00,090413,,,A*79
2013-04-09 00:05:19.758107;$GPGGA,000518.781,4530.3651,N,07334.5756,W,1,04,5.0,55.6,M,-31.9,M,,0000*5C
2013-04-09 00:05:19.770651;$GPGSA,A,3,21,06,03,16,,,,,,,,,5.8,5.0,2.9*30
2013-04-09 00:05:19.785820;$GPRMC,000518.781,A,4530.3651,N,07334.5756,W,0.16,266.86,090413,,,A*7B
2013-04-09 00:05:20.764853;$GPGGA,000519.781,4530.3652,N,07334.5756,W,1,04,5.0,55.7,M,-31.9,M,,0000*5F
2013-04-09 00:05:20.777496;$GPGSA,A,3,21,06,03,16,,,,,,,,,5.8,5.0,2.9*30
2013-04-09 00:05:20.790891;$GPGSV,3,1,11,19,70,151,,03,68,072,41,07,54,306,,06,48,058,42*7E
2013-04-09 00:05:20.804527;$GPGSV,3,2,11,13,39,221,,16,33,071,40,08,24,308,,23,21,199,*72
2013-04-09 00:05:20.815583;$GPGSV,3,3,11,11,16,170,,21,07,033,33,28,01,264,*47
2013-04-09 00:05:20.830514;$GPRMC,000519.781,A,4530.3652,N,07334.5756,W,0.14,271.99,090413,,,A*73
2013-04-09 00:05:20.995704;$GPGGA,000520.781,4530.3652,N,07334.5756,W,1,04,5.0,55.8,M,-31.9,M,,0000*5A
2013-04-09 00:05:21.105465;$GPGSA,A,3,21,06,03,16,,,,,,,,,5.8,5.0,2.9*30
2013-04-09 00:05:21.267894;$GPRMC,000520.781,A,4530.3652,N,07334.5756,W,0.16,274.28,090413,,,A*74
2013-04-09 00:05:22.764627;$GPGGA,000521.781,4530.3653,N,07334.5756,W,1,04,5.0,55.9,M,-31.9,M,,0000*5B
2013-04-09 00:05:22.776449;$GPGSA,A,3,21,06,03,16,,,,,,,,,5.8,5.0,2.9*30
2013-04-09 00:05:22.791079;$GPRMC,000521.781,A,4530.3653,N,07334.5756,W,0.16,281.95,090413,,,A*78
2013-04-09 00:05:23.776595;$GPGGA,000522.781,4530.3654,N,07334.5755,W,1,04,5.0,56.0,M,-31.9,M,,0000*56
2013-04-09 00:05:23.799872;$GPGSA,A,3,21,06,03,16,,,,,,,,,5.8,5.0,2.9*30
2013-04-09 00:05:23.834957;$GPRMC,000522.781,A,4530.3654,N,07334.5755,W,0.14,284.90,090413,,,A*7D
2013-04-09 00:05:23.994746;$GPGGA,000523.781,4530.3655,N,07334.5755,W,1,04,5.0,56.2,M,-31.9,M,,0000*54
2013-04-09 00:05:24.104405;$GPGSA,A,3,21,06,03,16,,,,,,,,,5.8,5.0,2.9*30
2013-04-09 00:05:24.266746;$GPRMC,000523.781,A,4530.3655,N,07334.5755,W,0.13,290.70,090413,,,A*71
2013-04-09 00:05:25.758746;$GPGGA,000524.781,4530.3655,N,07334.5755,W,1,04,5.0,56.3,M,-31.9,M,,0000*52
2013-04-09 00:05:25.771469;$GPGSA,A,3,21,06,03,16,,,,,,,,,5.8,5.0,2.9*30
2013-04-09 00:05:25.785587;$GPGSV,3,1,11,19,70,151,,03,68,072,41,07,54,306,,06,48,058,42*7E
2013-04-09 00:05:25.798653;$GPGSV,3,2,11,13,39,221,,16,33,071,40,08,24,308,,23,21,199,*72
2013-04-09 00:05:25.809604;$GPGSV,3,3,11,11,16,170,,21,07,033,33,28,01,264,*47
2013-04-09 00:05:25.824263;$GPRMC,000524.781,A,4530.3655,N,07334.5755,W,0.12,287.61,090413,,,A*71
2013-04-09 00:05:26.758767;$GPGGA,000525.781,4530.3656,N,07334.5755,W,1,04,5.0,56.4,M,-31.9,M,,0000*57
2013-04-09 00:05:26.771283;$GPGSA,A,3,21,06,03,16,,,,,,,,,5.8,5.0,2.9*30
2013-04-09 00:05:26.786592;$GPRMC,000525.781,A,4530.3656,N,07334.5755,W,0.11,295.81,090413,,,A*7D
2013-04-09 00:05:27.758696;$GPGGA,000526.781,4530.3657,N,07334.5754,W,1,04,5.0,56.5,M,-31.9,M,,0000*55
2013-04-09 00:05:27.771188;$GPGSA,A,3,21,06,03,16,,,,,,,,,5.8,5.0,2.9*30
2013-04-09 00:05:27.786723;$GPRMC,000526.781,A,4530.3657,N,07334.5754,W,0.14,291.83,090413,,,A*7D
2013-04-09 00:05:28.725959;$GPGGA,000527.781,4530.3658,N,07334.5754,W,1,04,5.0,56.7,M,-31.9,M,,0000*59
2013-04-09 00:05:28.738797;$GPGSA,A,3,21,06,03,16,,,,,,,,,5.8,5.0,2.9*30
2013-04-09 00:05:28.753529;$GPRMC,000527.781,A,4530.3658,N,07334.5754,W,0.11,291.61,090413,,,A*7A
2013-04-09 00:05:29.761185;$GPGGA,000528.781,4530.3658,N,07334.5754,W,1,04,5.0,56.8,M,-31.9,M,,0000*59
2013-04-09 00:05:29.773699;$GPGSA,A,3,21,06,03,16,,,,,,,,,5.8,5.0,2.9*30
2013-04-09 00:05:29.789101;$GPRMC,000528.781,A,4530.3658,N,07334.5754,W,0.14,297.86,090413,,,A*7F
2013-04-09 00:05:30.774782;$GPGGA,000529.781,4530.3659,N,07334.5754,W,1,04,5.0,56.9,M,-31.9,M,,0000*58
2013-04-09 00:05:30.787849;$GPGSA,A,3,21,06,03,16,,,,,,,,,5.8,5.0,2.9*30
2013-04-09 00:05:30.801298;$GPGSV,3,1,11,19,70,151,,03,68,072,41,07,54,306,,06,48,058,42*7E
2013-04-09 00:05:30.814243;$GPGSV,3,2,11,13,39,221,,16,33,071,40,08,24,308,,23,21,199,*72
2013-04-09 00:05:30.825232;$GPGSV,3,3,11,11,16,170,,21,07,033,33,28,01,264,*47
2013-04-09 00:05:30.839931;$GPRMC,000529.781,A,4530.3659,N,07334.5754,W,0.11,271.95,090413,,,A*70
2013-04-09 00:05:31.000579;$GPGGA,000530.781,4530.3659,N,07334.5754,W,1,04,5.0,57.0,M,-31.9,M,,0000*58
2013-04-09 00:05:31.104554;$GPGSA,A,3,21,06,03,16,,,,,,,,,5.8,5.0,2.9*30
2013-04-09 00:05:31.266801;$GPRMC,000530.781,A,4530.3659,N,07334.5754,W,0.10,291.22,090413,,,A*7B
2013-04-09 00:05:32.752040;$GPGGA,000531.781,4530.3660,N,07334.5754,W,1,04,5.0,57.1,M,-31.9,M,,0000*52
2013-04-09 00:05:32.772554;$GPGSA,A,3,21,06,03,16,,,,,,,,,5.8,5.0,2.9*30
2013-04-09 00:05:32.787818;$GPRMC,000531.781,A,4530.3660,N,07334.5754,W,0.14,271.13,090413,,,A*78
2013-04-09 00:05:33.772671;$GPGGA,000532.780,4530.3660,N,07334.5753,W,1,04,5.0,57.1,M,-31.9,M,,0000*57
2013-04-09 00:05:33.794004;$GPGSA,A,3,21,06,03,16,,,,,,,,,5.8,5.0,2.9*30
2013-04-09 00:05:33.834937;$GPRMC,000532.780,A,4530.3660,N,07334.5753,W,0.10,281.39,090413,,,A*7E
2013-04-09 00:05:33.994950;$GPGGA,000533.780,4530.3661,N,07334.5753,W,1,04,5.0,57.2,M,-31.9,M,,0000*54
2013-04-09 00:05:34.104686;$GPGSA,A,3,21,06,03,16,,,,,,,,,5.8,5.0,2.9*30
2013-04-09 00:05:34.267140;$GPRMC,000533.780,A,4530.3661,N,07334.5753,W,0.10,280.79,090413,,,A*7B
2013-04-09 00:05:35.759008;$GPGGA,000534.780,4530.3661,N,07334.5753,W,1,04,5.0,57.3,M,-31.9,M,,0000*52
2013-04-09 00:05:35.771582;$GPGSA,A,3,21,06,03,16,,,,,,,,,5.8,5.0,2.9*30
2013-04-09 00:05:35.785563;$GPGSV,3,1,11,19,70,151,,03,68,072,41,07,54,306,,06,48,058,43*7F
2013-04-09 00:05:35.798575;$GPGSV,3,2,11,13,39,221,,16,33,071,40,08,24,308,,23,21,199,*72
2013-04-09 00:05:35.825601;$GPGSV,3,3,11,11,16,170,,21,07,033,33,28,01,264,*47
2013-04-09 00:05:35.840901;$GPRMC,000534.780,A,4530.3661,N,07334.5753,W,0.11,283.41,090413,,,A*75
2013-04-09 00:05:35.994835;$GPGGA,000535.780,4530.3662,N,07334.5753,W,1,04,5.0,57.4,M,-31.9,M,,0000*57
2013-04-09 00:05:36.112642;$GPGSA,A,3,21,06,03,16,,,,,,,,,5.8,5.0,2.9*30
2013-04-09 00:05:36.266687;$GPRMC,000535.780,A,4530.3662,N,07334.5753,W,0.11,294.63,090413,,,A*71
2013-04-09 00:05:38.084823;$GPGGA,000536.780,4530.3662,N,07334.5753,W,1,04,5.0,57.5,M,-31.9,M,,0000*55
2013-04-09 00:05:38.097510;$GPGSA,A,3,21,06,03,16,,,,,,,,,5.8,5.0,2.9*30
2013-04-09 00:05:38.118603;$GPRMC,000536.780,A,4530.3662,N,07334.5753,W,0.14,288.81,090413,,,A*76
2013-04-09 00:05:38.150750;$GPGGA,000537.780,4530.3663,N,07334.5753,W,1,04,5.0,57.6,M,-31.9,M,,0000*56
2013-04-09 00:05:38.180459;$GPGSA,A,3,21,06,03,16,,,,,,,,,5.8,5.0,2.9*30
2013-04-09 00:05:38.266898;$GPRMC,000537.780,A,4530.3663,N,07334.5753,W,0.12,299.62,090413,,,A*7D
2013-04-09 00:05:39.758873;$GPGGA,000538.780,4530.3663,N,07334.5753,W,1,04,5.0,57.6,M,-31.9,M,,0000*59
2013-04-09 00:05:39.771447;$GPGSA,A,3,21,06,03,16,,,,,,,,,5.8,5.0,2.9*30
2013-04-09 00:05:39.786687;$GPRMC,000538.780,A,4530.3663,N,07334.5753,W,0.10,300.29,090413,,,A*7E
2013-04-09 00:05:40.759465;$GPGGA,000539.780,4530.3663,N,07334.5753,W,1,04,5.0,57.7,M,-31.9,M,,0000*59
2013-04-09 00:05:40.772044;$GPGSA,A,3,21,06,03,16,,,,,,,,,5.8,5.0,2.9*30
2013-04-09 00:05:40.786133;$GPGSV,3,1,11,19,70,151,,03,68,072,40,07,54,306,,06,48,058,43*7E
2013-04-09 00:05:40.799225;$GPGSV,3,2,11,13,39,221,,16,33,071,40,08,24,308,,23,21,199,*72
2013-04-09 00:05:40.810217;$GPGSV,3,3,11,11,16,170,,21,07,033,33,28,01,264,*47
2013-04-09 00:05:40.825110;$GPRMC,000539.780,A,4530.3663,N,07334.5753,W,0.10,291.67,090413,,,A*7C
2013-04-09 00:05:41.758575;$GPGGA,000540.780,4530.3664,N,07334.5753,W,1,04,5.0,57.7,M,-31.9,M,,0000*50
2013-04-09 00:05:41.770822;$GPGSA,A,3,21,06,03,16,,,,,,,,,5.8,5.0,2.9*30
2013-04-09 00:05:41.787090;$GPRMC,000540.780,A,4530.3664,N,07334.5753,W,0.13,297.67,090413,,,A*70
2013-04-09 00:05:42.758853;$GPGGA,000541.780,4530.3664,N,07334.5752,W,1,04,5.0,57.8,M,-31.9,M,,0000*5F
2013-04-09 00:05:42.771668;$GPGSA,A,3,21,06,03,16,,,,,,,,,5.8,5.0,2.9*30
2013-04-09 00:05:42.787008;$GPRMC,000541.780,A,4530.3664,N,07334.5752,W,0.07,290.88,090413,,,A*73
2013-04-09 00:05:43.743542;$GPGGA,000542.780,4530.3664,N,07334.5753,W,1,04,5.0,57.8,M,-31.9,M,,0000*5D
2013-04-09 00:05:43.756231;$GPGSA,A,3,21,06,03,16,,,,,,,,,5.8,5.0,2.9*30
2013-04-09 00:05:43.770932;$GPRMC,000542.780,A,4530.3664,N,07334.5753,W,0.15,294.10,090413,,,A*77
2013-04-09 00:05:44.792489;$GPGGA,000543.780,4530.3665,N,07334.5753,W,1,04,5.0,57.8,M,-31.9,M,,0000*5D
2013-04-09 00:05:44.805173;$GPGSA,A,3,21,06,03,16,,,,,,,,,5.8,5.0,2.9*30
2013-04-09 00:05:44.820543;$GPRMC,000543.780,A,4530.3665,N,07334.5753,W,0.11,297.32,090413,,,A*70
2013-04-09 00:05:45.767705;$GPGGA,000544.780,4530.3665,N,07334.5753,W,1,04,5.0,57.9,M,-31.9,M,,0000*5B
2013-04-09 00:05:45.792236;$GPGSA,A,3,21,06,03,16,,,,,,,,,5.8,5.0,2.9*30
2013-04-09 00:05:45.823259;$GPGSV,3,1,11,19,70,151,,03,68,072,40,07,54,306,,06,48,058,43*7E
2013-04-09 00:05:45.843070;$GPGSV,3,2,11,13,39,221,,16,33,071,40,08,24,308,,23,21,199,*72
2013-04-09 00:05:45.864284;$GPGSV,3,3,11,11,16,170,,21,07,033,33,28,01,264,*47
2013-04-09 00:05:45.897314;$GPRMC,000544.780,A,4530.3665,N,07334.5753,W,0.12,280.39,090413,,,A*79
2013-04-09 00:05:45.994898;$GPGGA,000545.780,4530.3665,N,07334.5753,W,1,04,5.0,57.9,M,-31.9,M,,0000*5A
2013-04-09 00:05:46.104745;$GPGSA,A,3,21,06,03,16,,,,,,,,,5.8,5.0,2.9*30
2013-04-09 00:05:46.266898;$GPRMC,000545.780,A,4530.3665,N,07334.5753,W,0.13,298.57,090413,,,A*78
2013-04-09 00:05:47.758686;$GPGGA,000546.780,4530.3665,N,07334.5753,W,1,04,5.0,57.9,M,-31.9,M,,0000*59
2013-04-09 00:05:47.771376;$GPGSA,A,3,21,06,03,16,,,,,,,,,5.8,5.0,2.9*30
2013-04-09 00:05:47.786865;$GPRMC,000546.780,A,4530.3665,N,07334.5753,W,0.15,290.40,090413,,,A*73
2013-04-09 00:05:48.758878;$GPGGA,000547.780,4530.3666,N,07334.5753,W,1,04,5.0,58.0,M,-31.9,M,,0000*5D
2013-04-09 00:05:48.771579;$GPGSA,A,3,21,06,03,16,,,,,,,,,5.8,5.0,2.9*30
2013-04-09 00:05:48.786893;$GPRMC,000547.780,A,4530.3666,N,07334.5753,W,0.09,310.75,090413,,,A*73
2013-04-09 00:05:49.759151;$GPGGA,000548.780,4530.3666,N,07334.5753,W,1,04,5.0,58.0,M,-31.9,M,,0000*52
2013-04-09 00:05:49.771824;$GPGSA,A,3,21,06,03,16,,,,,,,,,5.8,5.0,2.9*30
2013-04-09 00:05:49.787070;$GPRMC,000548.780,A,4530.3666,N,07334.5753,W,0.10,285.57,090413,,,A*79
2013-04-09 00:05:50.759271;$GPGGA,000549.780,4530.3666,N,07334.5753,W,1,04,5.0,58.1,M,-31.9,M,,0000*52
2013-04-09 00:05:50.771879;$GPGSA,A,3,21,06,03,16,,,,,,,,,5.8,5.0,2.9*30
2013-04-09 00:05:50.785877;$GPGSV,3,1,11,19,70,151,,03,68,072,40,07,54,306,,06,48,058,43*7E
2013-04-09 00:05:50.798992;$GPGSV,3,2,11,13,39,221,,16,33,071,40,08,24,308,,23,21,199,*72
2013-04-09 00:05:50.809894;$GPGSV,3,3,11,11,16,170,,21,07,033,33,28,01,264,*47
2013-04-09 00:05:50.824671;$GPRMC,000549.780,A,4530.3666,N,07334.5753,W,0.11,293.80,090413,,,A*74
2013-04-09 00:05:51.758901;$GPGGA,000550.780,4530.3666,N,07334.5754,W,1,04,5.0,58.1,M,-31.9,M,,0000*5D
2013-04-09 00:05:51.771507;$GPGSA,A,3,21,06,03,16,,,,,,,,,5.8,5.0,2.9*30
2013-04-09 00:05:51.786921;$GPRMC,000550.780,A,4530.3666,N,07334.5754,W,0.13,291.12,090413,,,A*70
2013-04-09 00:05:52.758996;$GPGGA,000551.780,4530.3666,N,07334.5754,W,1,04,5.0,58.1,M,-31.9,M,,0000*5C
2013-04-09 00:05:52.771641;$GPGSA,A,3,21,06,03,16,,,,,,,,,5.8,5.0,2.9*30
2013-04-09 00:05:52.786904;$GPRMC,000551.780,A,4530.3666,N,07334.5754,W,0.12,291.41,090413,,,A*76
2013-04-09 00:05:53.764382;$GPGGA,000552.781,4530.3666,N,07334.5754,W,1,04,5.0,58.1,M,-31.9,M,,0000*5E
2013-04-09 00:05:53.776977;$GPGSA,A,3,21,06,03,16,,,,,,,,,5.8,5.0,2.9*30
2013-04-09 00:05:53.791645;$GPRMC,000552.781,A,4530.3666,N,07334.5754,W,0.11,274.68,090413,,,A*77
2013-04-09 00:05:54.760448;$GPGGA,000553.781,4530.3666,N,07334.5755,W,1,04,5.0,58.1,M,-31.9,M,,0000*5E
2013-04-09 00:05:54.773211;$GPGSA,A,3,21,06,03,16,,,,,,,,,5.8,5.0,2.9*30
2013-04-09 00:05:54.788063;$GPRMC,000553.781,A,4530.3666,N,07334.5755,W,0.14,287.19,090413,,,A*78
2013-04-09 00:05:55.801322;$GPGGA,000554.781,4530.3666,N,07334.5755,W,1,04,5.0,58.1,M,-31.9,M,,0000*59
2013-04-09 00:05:55.820349;$GPGSA,A,3,21,06,03,16,,,,,,,,,5.8,5.0,2.9*30
2013-04-09 00:05:55.833859;$GPGSV,3,1,11,19,70,151,,03,68,072,40,07,54,306,,06,48,058,43*7E
2013-04-09 00:05:55.847600;$GPGSV,3,2,11,13,39,221,,16,33,071,40,08,24,308,,23,21,199,*72
2013-04-09 00:05:55.858579;$GPGSV,3,3,11,11,16,170,,21,07,033,34,28,01,264,*40
2013-04-09 00:05:55.873526;$GPRMC,000554.781,A,4530.3666,N,07334.5755,W,0.12,272.21,090413,,,A*78
2013-04-09 00:05:55.994603;$GPGGA,000555.781,4530.3666,N,07334.5755,W,1,04,5.0,58.1,M,-31.9,M,,0000*58
2013-04-09 00:05:56.104298;$GPGSA,A,3,21,06,03,16,,,,,,,,,5.8,5.0,2.9*30
2013-04-09 00:05:56.266874;$GPRMC,000555.781,A,4530.3666,N,07334.5755,W,0.10,264.03,090413,,,A*7C
2013-04-09 00:05:57.758713;$GPGGA,000556.781,4530.3665,N,07334.5756,W,1,04,5.0,58.0,M,-31.9,M,,0000*5A
2013-04-09 00:05:57.771345;$GPGSA,A,3,21,06,03,16,,,,,,,,,5.8,5.0,2.9*30
2013-04-09 00:05:57.786678;$GPRMC,000556.781,A,4530.3665,N,07334.5756,W,0.14,266.56,090413,,,A*79
2013-04-09 00:05:58.758622;$GPGGA,000557.781,4530.3665,N,07334.5756,W,1,04,5.0,58.0,M,-31.9,M,,0000*5B
2013-04-09 00:05:58.771165;$GPGSA,A,3,21,06,03,16,,,,,,,,,5.8,5.0,2.9*30
2013-04-09 00:05:58.786304;$GPRMC,000557.781,A,4530.3665,N,07334.5756,W,0.12,269.20,090413,,,A*70
2013-04-09 00:05:59.758891;$GPGGA,000558.781,4530.3665,N,07334.5756,W,1,04,5.0,58.0,M,-31.9,M,,0000*54
2013-04-09 00:05:59.771618;$GPGSA,A,3,21,06,03,16,,,,,,,,,5.8,5.0,2.9*30
2013-04-09 00:05:59.786748;$GPRMC,000558.781,A,4530.3665,N,07334.5756,W,0.12,275.88,090413,,,A*70
2013-04-09 00:06:00.759173;$GPGGA,000559.781,4530.3665,N,07334.5756,W,1,04,5.0,58.0,M,-31.9,M,,0000*55
2013-04-09 00:06:00.771647;$GPGSA,A,3,21,06,03,16,,,,,,,,,5.8,5.0,2.9*30
2013-04-09 00:06:00.785633;$GPGSV,3,1,11,19,70,151,,03,68,072,41,07,54,306,,06,48,058,43*7F
2013-04-09 00:06:00.798865;$GPGSV,3,2,11,13,39,221,,16,33,071,40,08,24,308,,23,21,199,*72
2013-04-09 00:06:00.809717;$GPGSV,3,3,11,11,16,170,,21,07,033,34,28,01,264,*40
2013-04-09 00:06:00.824310;$GPRMC,000559.781,A,4530.3665,N,07334.5756,W,0.14,257.72,090413,,,A*72
2013-04-09 00:06:01.758984;$GPGGA,000600.781,4530.3665,N,07334.5757,W,1,04,5.0,58.0,M,-31.9,M,,0000*5B
2013-04-09 00:06:01.771542;$GPGSA,A,3,21,06,03,16,,,,,,,,,5.8,5.0,2.9*30
2013-04-09 00:06:01.786712;$GPRMC,000600.781,A,4530.3665,N,07334.5757,W,0.14,279.98,090413,,,A*74
2013-04-09 00:06:02.758870;$GPGGA,000601.781,4530.3665,N,07334.5757,W,1,04,5.0,58.0,M,-31.9,M,,0000*5A
2013-04-09 00:06:02.771462;$GPGSA,A,3,21,06,03,16,,,,,,,,,5.8,5.0,2.9*30
2013-04-09 00:06:02.786714;$GPRMC,000601.781,A,4530.3665,N,07334.5757,W,0.15,278.27,090413,,,A*71
2013-04-09 00:06:03.767156;$GPGGA,000602.780,4530.3665,N,07334.5757,W,1,04,5.0,58.0,M,-31.9,M,,0000*58
2013-04-09 00:06:03.779409;$GPGSA,A,3,21,06,03,16,,,,,,,,,5.8,5.0,2.9*30
2013-04-09 00:06:03.796163;$GPRMC,000602.780,A,4530.3665,N,07334.5757,W,0.11,289.49,090413,,,A*71
2013-04-09 00:06:04.735981;$GPGGA,000603.781,4530.3665,N,07334.5757,W,1,04,5.0,58.0,M,-31.9,M,,0000*58
2013-04-09 00:06:04.748532;$GPGSA,A,3,21,06,03,16,,,,,,,,,5.8,5.0,2.9*30
2013-04-09 00:06:04.763104;$GPRMC,000603.781,A,4530.3665,N,07334.5757,W,0.13,263.88,090413,,,A*7A
2013-04-09 00:06:05.786859;$GPGGA,000604.781,4530.3665,N,07334.5757,W,1,04,5.0,58.1,M,-31.9,M,,0000*5E
2013-04-09 00:06:05.799366;$GPGSA,A,3,21,06,03,16,,,,,,,,,5.8,5.0,2.9*30
2013-04-09 00:06:05.812960;$GPGSV,3,1,11,19,70,151,,03,68,072,41,07,54,306,,06,48,058,42*7E
2013-04-09 00:06:05.826544;$GPGSV,3,2,11,13,39,221,,16,33,071,40,08,24,308,,23,21,199,*72
2013-04-09 00:06:05.837716;$GPGSV,3,3,11,11,16,170,,21,07,033,35,28,01,264,*41
2013-04-09 00:06:05.852551;$GPRMC,000604.781,A,4530.3665,N,07334.5757,W,0.13,276.17,090413,,,A*7F
2013-04-09 00:06:05.995002;$GPGGA,000605.781,4530.3665,N,07334.5757,W,1,04,5.0,58.1,M,-31.9,M,,0000*5F
2013-04-09 00:06:06.104546;$GPGSA,A,3,21,06,03,16,,,,,,,,,5.8,5.0,2.9*30
2013-04-09 00:06:06.266874;$GPRMC,000605.781,A,4530.3665,N,07334.5757,W,0.15,280.59,090413,,,A*7B
2013-04-09 00:06:07.783377;$GPGGA,000606.781,4530.3665,N,07334.5757,W,1,04,5.0,58.1,M,-31.9,M,,0000*5C
2013-04-09 00:06:07.802059;$GPGSA,A,3,21,06,03,16,,,,,,,,,5.8,5.0,2.9*30
2013-04-09 00:06:07.837496;$GPRMC,000606.781,A,4530.3665,N,07334.5757,W,0.14,280.17,090413,,,A*73
2013-04-09 00:06:07.994596;$GPGGA,000607.781,4530.3666,N,07334.5757,W,1,04,5.0,58.2,M,-31.9,M,,0000*5D
2013-04-09 00:06:08.104221;$GPGSA,A,3,21,06,03,16,,,,,,,,,5.8,5.0,2.9*30
2013-04-09 00:06:08.266662;$GPRMC,000607.781,A,4530.3666,N,07334.5757,W,0.11,292.41,090413,,,A*74
2013-04-09 00:06:09.758508;$GPGGA,000608.781,4530.3666,N,07334.5757,W,1,04,5.0,58.2,M,-31.9,M,,0000*52
2013-04-09 00:06:09.771090;$GPGSA,A,3,21,06,03,16,,,,,,,,,5.8,5.0,2.9*30
2013-04-09 00:06:09.786435;$GPRMC,000608.781,A,4530.3666,N,07334.5757,W,0.15,290.80,090413,,,A*70
2013-04-09 00:06:10.758929;$GPGGA,000609.781,4530.3666,N,07334.5757,W,1,04,5.0,58.2,M,-31.9,M,,0000*53
2013-04-09 00:06:10.771384;$GPGSA,A,3,21,06,03,16,,,,,,,,,5.8,5.0,2.9*30
2013-04-09 00:06:10.785486;$GPGSV,3,1,11,19,70,151,,03,68,072,41,07,54,306,,06,48,058,42*7E
2013-04-09 00:06:10.798636;$GPGSV,3,2,11,13,39,221,,16,33,071,40,08,24,308,,23,21,199,*72
2013-04-09 00:06:10.809649;$GPGSV,3,3,11,11,16,170,,21,07,033,35,28,01,264,*41
2013-04-09 00:06:10.824677;$GPRMC,000609.781,A,4530.3666,N,07334.5757,W,0.14,279.76,090413,,,A*7E
2013-04-09 00:06:11.758887;$GPGGA,000610.781,4530.3666,N,07334.5757,W,1,04,5.0,58.3,M,-31.9,M,,0000*5A
2013-04-09 00:06:11.771370;$GPGSA,A,3,21,06,03,16,,,,,,,,,5.8,5.0,2.9*30
2013-04-09 00:06:11.786642;$GPRMC,000610.781,A,4530.3666,N,07334.5757,W,0.14,299.36,090413,,,A*7C
2013-04-09 00:06:12.753459;$GPGGA,000611.781,4530.3667,N,07334.5757,W,1,04,5.0,58.4,M,-31.9,M,,0000*5D
2013-04-09 00:06:12.766102;$GPGSA,A,3,21,06,03,16,,,,,,,,,5.8,5.0,2.9*30
2013-04-09 00:06:12.781003;$GPRMC,000611.781,A,4530.3667,N,07334.5757,W,0.14,283.30,090413,,,A*71
2013-04-09 00:06:13.758804;$GPGGA,000612.781,4530.3667,N,07334.5757,W,1,04,5.0,58.4,M,-31.9,M,,0000*5E
2013-04-09 00:06:13.771345;$GPGSA,A,3,21,06,03,16,,,,,,,,,5.8,5.0,2.9*30
2013-04-09 00:06:13.786664;$GPRMC,000612.781,A,4530.3667,N,07334.5757,W,0.14,278.15,090413,,,A*71
2013-04-09 00:06:14.758815;$GPGGA,000613.781,4530.3667,N,07334.5757,W,1,04,5.0,58.5,M,-31.9,M,,0000*5E
2013-04-09 00:06:14.771311;$GPGSA,A,3,21,06,03,16,,,,,,,,,5.8,5.0,2.9*30
2013-04-09 00:06:14.786618;$GPRMC,000613.781,A,4530.3667,N,07334.5757,W,0.13,282.59,090413,,,A*7A
2013-04-09 00:06:15.758950;$GPGGA,000614.781,4530.3668,N,07334.5757,W,1,04,5.0,58.6,M,-31.9,M,,0000*55
2013-04-09 00:06:15.771496;$GPGSA,A,3,21,06,03,16,,,,,,,,,5.8,5.0,2.9*30
2013-04-09 00:06:15.785624;$GPGSV,3,1,11,19,70,151,,03,68,072,41,07,54,306,,06,48,058,41*7D
2013-04-09 00:06:15.798812;$GPGSV,3,2,11,13,39,221,,16,33,071,40,08,24,308,,23,21,199,*72
2013-04-09 00:06:15.809721;$GPGSV,3,3,11,11,16,170,,21,07,033,35,28,01,264,*41
2013-04-09 00:06:15.824486;$GPRMC,000614.781,A,4530.3668,N,07334.5757,W,0.15,294.73,090413,,,A*7B
2013-04-09 00:06:16.758892;$GPGGA,000615.781,4530.3668,N,07334.5756,W,1,04,5.0,58.7,M,-31.9,M,,0000*54
2013-04-09 00:06:16.771544;$GPGSA,A,3,21,06,03,16,,,,,,,,,5.8,5.0,2.9*30
2013-04-09 00:06:16.786865;$GPRMC,000615.781,A,4530.3668,N,07334.5756,W,0.17,295.96,090413,,,A*73
2013-04-09 00:06:17.759177;$GPGGA,000616.781,4530.3668,N,07334.5756,W,1,04,5.0,58.7,M,-31.9,M,,0000*57
2013-04-09 00:06:17.771621;$GPGSA,A,3,21,06,03,16,,,,,,,,,5.8,5.0,2.9*30
2013-04-09 00:06:17.787035;$GPRMC,000616.781,A,4530.3668,N,07334.5756,W,0.10,286.19,090413,,,A*72
2013-04-09 00:06:18.758189;$GPGGA,000617.781,4530.3669,N,07334.5756,W,1,04,5.0,58.8,M,-31.9,M,,0000*58
2013-04-09 00:06:18.770976;$GPGSA,A,3,21,06,03,16,,,,,,,,,5.8,5.0,2.9*30
2013-04-09 00:06:18.786434;$GPRMC,000617.781,A,4530.3669,N,07334.5756,W,0.15,283.43,090413,,,A*7D
2013-04-09 00:06:19.758638;$GPGGA,000618.781,4530.3669,N,07334.5756,W,1,04,5.0,58.9,M,-31.9,M,,0000*56
2013-04-09 00:06:19.771115;$GPGSA,A,3,21,06,03,16,,,,,,,,,5.8,5.0,2.9*30
2013-04-09 00:06:19.786392;$GPRMC,000618.781,A,4530.3669,N,07334.5756,W,0.13,280.03,090413,,,A*73
2013-04-09 00:06:20.743700;$GPGGA,000619.781,4530.3670,N,07334.5756,W,1,04,5.0,59.0,M,-31.9,M,,0000*57
2013-04-09 00:06:20.756282;$GPGSA,A,3,21,06,03,16,,,,,,,,,5.8,5.0,2.9*30
2013-04-09 00:06:20.769931;$GPGSV,3,1,11,19,70,151,,03,68,072,41,07,54,306,,06,48,058,42*7E
2013-04-09 00:06:20.783521;$GPGSV,3,2,11,13,39,221,,16,33,071,40,08,24,308,,23,21,199,*72
2013-04-09 00:06:20.794499;$GPGSV,3,3,11,11,16,170,,21,07,033,35,28,01,264,*41
2013-04-09 00:06:20.809141;$GPRMC,000619.781,A,4530.3670,N,07334.5756,W,0.15,302.42,090413,,,A*72
2013-04-09 00:06:21.773816;$GPGGA,000620.781,4530.3670,N,07334.5756,W,1,04,5.0,59.0,M,-31.9,M,,0000*5D
2013-04-09 00:06:21.786641;$GPGSA,A,3,21,06,03,16,,,,,,,,,5.8,5.0,2.9*30
2013-04-09 00:06:21.801343;$GPRMC,000620.781,A,4530.3670,N,07334.5756,W,0.14,290.31,090413,,,A*77
2013-04-09 00:06:22.784665;$GPGGA,000621.781,4530.3670,N,07334.5755,W,1,04,5.0,59.1,M,-31.9,M,,0000*5E
2013-04-09 00:06:22.804171;$GPGSA,A,3,21,06,03,16,,,,,,,,,5.8,5.0,2.9*30
2013-04-09 00:06:22.819393;$GPRMC,000621.781,A,4530.3670,N,07334.5755,W,0.13,285.23,090413,,,A*75
2013-04-09 00:06:23.781319;$GPGGA,000622.781,4530.3671,N,07334.5755,W,1,04,5.0,59.2,M,-31.9,M,,0000*5F
2013-04-09 00:06:23.793866;$GPGSA,A,3,21,06,03,16,,,,,,,,,5.8,5.0,2.9*30
2013-04-09 00:06:23.812724;$GPRMC,000622.781,A,4530.3671,N,07334.5755,W,0.10,290.06,090413,,,A*77
2013-04-09 00:06:24.773182;$GPGGA,000623.781,4530.3671,N,07334.5755,W,1,04,5.0,59.2,M,-31.9,M,,0000*5E
2013-04-09 00:06:24.792144;$GPGSA,A,3,21,06,03,16,,,,,,,,,5.8,5.0,2.9*30
2013-04-09 00:06:24.807490;$GPRMC,000623.781,A,4530.3671,N,07334.5755,W,0.11,285.52,090413,,,A*72
2013-04-09 00:06:25.773476;$GPGGA,000624.781,4530.3671,N,07334.5755,W,1,04,5.0,59.3,M,-31.9,M,,0000*58
2013-04-09 00:06:25.790279;$GPGSA,A,3,21,06,03,16,,,,,,,,,5.8,5.0,2.9*30
2013-04-09 00:06:25.814075;$GPGSV,3,1,11,19,70,151,,03,68,072,41,07,54,306,,06,48,058,42*7E
2013-04-09 00:06:25.842530;$GPGSV,3,2,11,13,39,221,,16,33,071,40,08,24,308,,23,21,199,*72
2013-04-09 00:06:25.860224;$GPGSV,3,3,11,11,16,170,,21,07,033,35,28,01,264,*41
2013-04-09 00:06:25.875216;$GPRMC,000624.781,A,4530.3671,N,07334.5755,W,0.16,291.30,090413,,,A*73
2013-04-09 00:06:25.994810;$GPGGA,000625.781,4530.3672,N,07334.5754,W,1,04,5.0,59.4,M,-31.9,M,,0000*5C
2013-04-09 00:06:26.104531;$GPGSA,A,3,21,06,03,16,,,,,,,,,5.8,5.0,2.9*30
2013-04-09 00:06:26.266856;$GPRMC,000625.781,A,4530.3672,N,07334.5754,W,0.11,286.51,090413,,,A*76
2013-04-09 00:06:27.733847;$GPGGA,000626.781,4530.3672,N,07334.5754,W,1,04,5.0,59.4,M,-31.9,M,,0000*5F
2013-04-09 00:06:27.753673;$GPGSA,A,3,21,06,03,16,,,,,,,,,5.8,5.0,2.9*30
2013-04-09 00:06:27.769082;$GPRMC,000626.781,A,4530.3672,N,07334.5754,W,0.14,292.69,090413,,,A*7E
2013-04-09 00:06:28.782418;$GPGGA,000627.781,4530.3672,N,07334.5754,W,1,04,5.0,59.5,M,-31.9,M,,0000*5F
2013-04-09 00:06:28.795532;$GPGSA,A,3,21,06,03,16,,,,,,,,,5.8,5.0,2.9*30
2013-04-09 00:06:28.810175;$GPRMC,000627.781,A,4530.3672,N,07334.5754,W,0.13,296.02,090413,,,A*71
2013-04-09 00:06:29.774083;$GPGGA,000628.781,4530.3673,N,07334.5754,W,1,04,5.0,59.6,M,-31.9,M,,0000*52
2013-04-09 00:06:29.796076;$GPGSA,A,3,21,06,03,16,,,,,,,,,5.8,5.0,2.9*30
2013-04-09 00:06:29.817859;$GPRMC,000628.781,A,4530.3673,N,07334.5754,W,0.14,296.08,090413,,,A*72
2013-04-09 00:06:30.741661;$GPGGA,000629.781,4530.3673,N,07334.5753,W,1,04,5.0,59.7,M,-31.9,M,,0000*55
2013-04-09 00:06:30.753915;$GPGSA,A,3,21,06,03,16,,,,,,,,,5.8,5.0,2.9*30
2013-04-09 00:06:30.767982;$GPGSV,3,1,11,19,70,151,,03,68,072,41,07,54,306,,06,48,058,42*7E
2013-04-09 00:06:30.781025;$GPGSV,3,2,11,13,39,221,,16,33,071,41,08,24,308,,23,21,199,*73
2013-04-09 00:06:30.792267;$GPGSV,3,3,11,11,16,170,,21,07,033,35,28,01,264,*41
2013-04-09 00:06:30.807581;$GPRMC,000629.781,A,4530.3673,N,07334.5753,W,0.11,308.36,090413,,,A*7A
2013-04-09 00:06:31.775365;$GPGGA,000630.781,4530.3674,N,07334.5753,W,1,04,5.0,59.8,M,-31.9,M,,0000*55
2013-04-09 00:06:31.788395;$GPGSA,A,3,21,06,03,16,,,,,,,,,5.8,5.0,2.9*30
2013-04-09 00:06:31.803112;$GPRMC,000630.781,A,4530.3674,N,07334.5753,W,0.13,319.19,090413,,,A*7A
2013-04-09 00:06:32.776732;$GPGGA,000631.781,4530.3675,N,07334.5753,W,1,04,5.0,59.9,M,-31.9,M,,0000*54
2013-04-09 00:06:32.802035;$GPGSA,A,3,21,06,03,16,,,,,,,,,5.8,5.0,2.9*30
2013-04-09 00:06:32.817495;$GPRMC,000631.781,A,4530.3675,N,07334.5753,W,0.14,307.30,090413,,,A*79
2013-04-09 00:06:33.763578;$GPGGA,000632.780,4530.3675,N,07334.5753,W,1,04,5.0,60.1,M,-31.9,M,,0000*54
2013-04-09 00:06:33.776243;$GPGSA,A,3,21,06,03,16,,,,,,,,,5.8,5.0,2.9*30
2013-04-09 00:06:33.790930;$GPRMC,000632.780,A,4530.3675,N,07334.5753,W,0.13,319.22,090413,,,A*70
2013-04-09 00:06:34.762070;$GPGGA,000633.780,4530.3676,N,07334.5752,W,1,04,5.0,60.2,M,-31.9,M,,0000*54
2013-04-09 00:06:34.774951;$GPGSA,A,3,21,06,03,16,,,,,,,,,5.8,5.0,2.9*30
2013-04-09 00:06:34.789705;$GPRMC,000633.780,A,4530.3676,N,07334.5752,W,0.11,308.08,090413,,,A*79
2013-04-09 00:06:35.770015;$GPGGA,000634.780,4530.3676,N,07334.5752,W,1,04,5.0,60.3,M,-31.9,M,,0000*52
2013-04-09 00:06:35.782606;$GPGSA,A,3,21,06,03,16,,,,,,,,,5.8,5.0,2.9*30
2013-04-09 00:06:35.796148;$GPGSV,3,1,11,19,72,148,,03,67,070,41,07,56,305,,06,47,057,43*79
2013-04-09 00:06:35.810234;$GPGSV,3,2,11,13,37,220,,16,32,072,41,08,26,308,,23,19,199,*77
2013-04-09 00:06:35.821177;$GPGSV,3,3,11,11,17,170,,21,07,032,35,28,02,265,*43
2013-04-09 00:06:35.836021;$GPRMC,000634.780,A,4530.3676,N,07334.5752,W,0.14,313.41,090413,,,A*7C
2013-04-09 00:06:35.994546;$GPGGA,000635.780,4530.3677,N,07334.5752,W,1,04,5.0,60.3,M,-31.9,M,,0000*52
2013-04-09 00:06:36.104215;$GPGSA,A,3,21,06,03,16,,,,,,,,,5.8,5.0,2.9*30
2013-04-09 00:06:36.266637;$GPRMC,000635.780,A,4530.3677,N,07334.5752,W,0.11,301.05,090413,,,A*7A
2013-04-09 00:06:37.758775;$GPGGA,000636.780,4530.3677,N,07334.5752,W,1,04,5.0,60.4,M,-31.9,M,,0000*56
2013-04-09 00:06:37.771375;$GPGSA,A,3,21,06,03,16,,,,,,,,,5.8,5.0,2.9*30
2013-04-09 00:06:37.786681;$GPRMC,000636.780,A,4530.3677,N,07334.5752,W,0.13,294.39,090413,,,A*79
2013-04-09 00:06:38.759283;$GPGGA,000637.780,4530.3677,N,07334.5752,W,1,04,5.0,60.5,M,-31.9,M,,0000*56
2013-04-09 00:06:38.771855;$GPGSA,A,3,21,06,03,16,,,,,,,,,5.8,5.0,2.9*30
2013-04-09 00:06:38.787389;$GPRMC,000637.780,A,4530.3677,N,07334.5752,W,0.09,289.41,090413,,,A*70
2013-04-09 00:06:39.733964;$GPGGA,000638.780,4530.3678,N,07334.5751,W,1,04,5.0,60.6,M,-31.9,M,,0000*56
2013-04-09 00:06:39.746612;$GPGSA,A,3,21,06,03,16,,,,,,,,,5.8,5.0,2.9*30
2013-04-09 00:06:39.761306;$GPRMC,000638.780,A,4530.3678,N,07334.5751,W,0.12,303.91,090413,,,A*77
2013-04-09 00:06:40.777155;$GPGGA,000639.780,4530.3678,N,07334.5751,W,1,04,5.0,60.7,M,-31.9,M,,0000*56
2013-04-09 00:06:40.789644;$GPGSA,A,3,21,06,03,16,,,,,,,,,5.8,5.0,2.9*30
2013-04-09 00:06:40.803196;$GPGSV,3,1,11,19,72,148,,03,67,070,42,07,56,305,,06,47,057,43*7A
2013-04-09 00:06:40.816816;$GPGSV,3,2,11,13,37,220,,16,32,072,41,08,26,308,,23,19,199,*77
2013-04-09 00:06:40.827895;$GPGSV,3,3,11,11,17,170,,21,07,032,35,28,02,265,*43
2013-04-09 00:06:40.842654;$GPRMC,000639.780,A,4530.3678,N,07334.5751,W,0.09,315.16,090413,,,A*74
2013-04-09 00:06:40.994548;$GPGGA,000640.780,4530.3679,N,07334.5751,W,1,04,5.0,60.8,M,-31.9,M,,0000*56
2013-04-09 00:06:41.104128;$GPGSA,A,3,21,06,03,16,,,,,,,,,5.8,5.0,2.9*30
2013-04-09 00:06:41.266526;$GPRMC,000640.780,A,4530.3679,N,07334.5751,W,0.13,296.74,090413,,,A*7E
2013-04-09 00:06:42.777548;$GPGGA,000641.780,4530.3679,N,07334.5751,W,1,04,5.0,60.9,M,-31.9,M,,0000*56
2013-04-09 00:06:42.796702;$GPGSA,A,3,21,06,03,16,,,,,,,,,5.8,5.0,2.9*30
2013-04-09 00:06:42.821765;$GPRMC,000641.780,A,4530.3679,N,07334.5751,W,0.13,301.52,090413,,,A*74
2013-04-09 00:06:43.774295;$GPGGA,000642.780,4530.3680,N,07334.5751,W,1,04,5.0,61.0,M,-31.9,M,,0000*5B
2013-04-09 00:06:43.803281;$GPGSA,A,3,21,06,03,16,,,,,,,,,5.8,5.0,2.9*30
2013-04-09 00:06:43.818548;$GPRMC,000642.780,A,4530.3680,N,07334.5751,W,0.10,304.49,090413,,,A*7D
2013-04-09 00:06:44.758657;$GPGGA,000643.780,4530.3680,N,07334.5751,W,1,04,5.0,61.0,M,-31.9,M,,0000*5A
2013-04-09 00:06:44.771258;$GPGSA,A,3,21,06,03,16,,,,,,,,,5.8,5.0,2.9*30
2013-04-09 00:06:44.786548;$GPRMC,000643.780,A,4530.3680,N,07334.5751,W,0.09,282.23,090413,,,A*77
2013-04-09 00:06:45.758768;$GPGGA,000644.780,4530.3680,N,07334.5751,W,1,04,5.0,61.1,M,-31.9,M,,0000*5C
2013-04-09 00:06:45.771324;$GPGSA,A,3,21,06,03,16,,,,,,,,,5.8,5.0,2.9*30
2013-04-09 00:06:45.785395;$GPGSV,3,1,11,19,72,148,,03,67,070,42,07,56,305,,06,47,057,43*7A
2013-04-09 00:06:45.798434;$GPGSV,3,2,11,13,37,220,,16,32,072,41,08,26,308,,23,19,199,*77
2013-04-09 00:06:45.809478;$GPGSV,3,3,11,11,17,170,,21,07,032,35,28,02,265,*43
2013-04-09 00:06:45.824189;$GPRMC,000644.780,A,4530.3680,N,07334.5751,W,0.11,300.67,090413,,,A*72
2013-04-09 00:06:46.758660;$GPGGA,000645.780,4530.3681,N,07334.5750,W,1,04,5.0,61.2,M,-31.9,M,,0000*5E
2013-04-09 00:06:46.771403;$GPGSA,A,3,21,06,03,16,,,,,,,,,5.8,5.0,2.9*30
2013-04-09 00:06:46.786615;$GPRMC,000645.780,A,4530.3681,N,07334.5750,W,0.11,292.58,090413,,,A*75
2013-04-09 00:06:47.758918;$GPGGA,000646.780,4530.3681,N,07334.5750,W,1,04,5.0,61.2,M,-31.9,M,,0000*5D
2013-04-09 00:06:47.771524;$GPGSA,A,3,21,06,03,16,,,,,,,,,5.8,5.0,2.9*30
2013-04-09 00:06:47.786945;$GPRMC,000646.780,A,4530.3681,N,07334.5750,W,0.11,285.41,090413,,,A*78
2013-04-09 00:06:48.758996;$GPGGA,000647.780,4530.3681,N,07334.5750,W,1,04,5.0,61.3,M,-31.9,M,,0000*5D
2013-04-09 00:06:48.771569;$GPGSA,A,3,21,06,03,16,,,,,,,,,5.8,5.0,2.9*30
2013-04-09 00:06:48.786827;$GPRMC,000647.780,A,4530.3681,N,07334.5750,W,0.13,300.89,090413,,,A*73
2013-04-09 00:06:49.759067;$GPGGA,000648.780,4530.3682,N,07334.5750,W,1,04,5.0,61.4,M,-31.9,M,,0000*56
2013-04-09 00:06:49.771652;$GPGSA,A,3,21,06,03,16,,,,,,,,,5.8,5.0,2.9*30
2013-04-09 00:06:49.786869;$GPRMC,000648.780,A,4530.3682,N,07334.5750,W,0.09,301.80,090413,,,A*7C
2013-04-09 00:06:50.758938;$GPGGA,000649.780,4530.3682,N,07334.5750,W,1,04,5.0,61.5,M,-31.9,M,,0000*56
2013-04-09 00:06:50.771966;$GPGSA,A,3,21,06,03,16,,,,,,,,,5.8,5.0,2.9*30
2013-04-09 00:06:50.785594;$GPGSV,3,1,11,19,72,148,,03,67,070,41,07,56,305,,06,47,057,43*79
2013-04-09 00:06:50.798598;$GPGSV,3,2,11,13,37,220,,16,32,072,41,08,26,308,,23,19,199,*77
2013-04-09 00:06:50.809552;$GPGSV,3,3,11,11,17,170,,21,07,032,35,28,02,265,*43
2013-04-09 00:06:50.824712;$GPRMC,000649.780,A,4530.3682,N,07334.5750,W,0.12,288.84,090413,,,A*73
2013-04-09 00:06:51.759351;$GPGGA,000650.780,4530.3682,N,07334.5750,W,1,04,5.0,61.5,M,-31.9,M,,0000*5E
2013-04-09 00:06:51.771888;$GPGSA,A,3,21,06,03,16,,,,,,,,,5.8,5.0,2.9*30
2013-04-09 00:06:51.787258;$GPRMC,000650.780,A,4530.3682,N,07334.5750,W,0.11,295.66,090413,,,A*78
2013-04-09 00:06:52.758823;$GPGGA,000651.780,4530.3682,N,07334.5750,W,1,04,5.0,61.6,M,-31.9,M,,0000*5C
2013-04-09 00:06:52.771424;$GPGSA,A,3,21,06,03,16,,,,,,,,,5.8,5.0,2.9*30
2013-04-09 00:06:52.786775;$GPRMC,000651.780,A,4530.3682,N,07334.5750,W,0.12,285.89,090413,,,A*7A
2013-04-09 00:06:53.759023;$GPGGA,000652.781,4530.3682,N,07334.5750,W,1,04,5.0,61.6,M,-31.9,M,,0000*5E
2013-04-09 00:06:53.771655;$GPGSA,A,3,21,06,03,16,,,,,,,,,5.8,5.0,2.9*30
2013-04-09 00:06:53.787030;$GPRMC,000652.781,A,4530.3682,N,07334.5750,W,0.11,298.72,090413,,,A*73
2013-04-09 00:06:54.758840;$GPGGA,000653.781,4530.3683,N,07334.5750,W,1,04,5.0,61.6,M,-31.9,M,,0000*5E
2013-04-09 00:06:54.771480;$GPGSA,A,3,21,06,03,16,,,,,,,,,5.8,5.0,2.9*30
2013-04-09 00:06:54.786819;$GPRMC,000653.781,A,4530.3683,N,07334.5750,W,0.11,290.97,090413,,,A*70
2013-04-09 00:06:55.736841;$GPGGA,000654.781,4530.3683,N,07334.5750,W,1,04,5.0,61.7,M,-31.9,M,,0000*58
2013-04-09 00:06:55.749358;$GPGSA,A,3,21,06,03,16,,,,,,,,,5.8,5.0,2.9*30
2013-04-09 00:06:55.762829;$GPGSV,3,1,11,19,72,148,,03,67,070,41,07,56,305,,06,47,057,43*79
2013-04-09 00:06:55.776485;$GPGSV,3,2,11,13,37,220,,16,32,072,40,08,26,308,,23,19,199,*76
2013-04-09 00:06:55.787650;$GPGSV,3,3,11,11,17,170,,21,07,032,35,28,02,265,*43
2013-04-09 00:06:55.802423;$GPRMC,000654.781,A,4530.3683,N,07334.5750,W,0.12,283.80,090413,,,A*70
2013-04-09 00:06:56.741932;$GPGGA,000655.781,4530.3683,N,07334.5750,W,1,04,5.0,61.7,M,-31.9,M,,0000*59
2013-04-09 00:06:56.755114;$GPGSA,A,3,21,06,03,16,,,,,,,,,5.8,5.0,2.9*30
