2013-04-02 22:56:02.943384;$GPGGA,225602.000,4530.4177,N,07334.7045,W,1,07,1.8,87.7,M,-31.9,M,,0000*5D
2013-04-02 22:56:02.958816;$GPGSA,A,3,06,03,31,21,23,19,16,,,,,,2.7,1.8,2.0*36
2013-04-02 22:56:02.972862;$GPRMC,225602.000,A,4530.4177,N,07334.7045,W,0.87,133.60,020413,,,A*73
2013-04-02 22:56:03.978723;$GPGGA,225603.000,4530.4174,N,07334.7044,W,1,07,1.8,87.5,M,-31.9,M,,0000*5C
2013-04-02 22:56:03.991918;$GPGSA,A,3,06,03,31,21,23,19,16,,,,,,2.7,1.8,2.0*36
2013-04-02 22:56:04.005353;$GPGSV,3,1,10,16,71,039,17,06,59,133,32,23,58,235,18,13,54,287,*72
2013-04-02 22:56:04.018993;$GPGSV,3,2,10,03,51,172,28,19,26,178,38,07,16,297,,31,14,109,25*7D
2013-04-02 22:56:04.027425;$GPGSV,3,3,10,21,10,067,33,10,08,308,*79
2013-04-02 22:56:04.141586;$GPRMC,225603.000,A,4530.4174,N,07334.7044,W,0.49,133.00,020413,,,A*74
2013-04-02 22:56:04.978709;$GPGGA,225604.000,4530.4170,N,07334.7038,W,1,07,1.8,87.4,M,-31.9,M,,0000*55
2013-04-02 22:56:04.991889;$GPGSA,A,3,06,03,31,21,23,19,16,,,,,,2.7,1.8,2.0*36
2013-04-02 22:56:05.006064;$GPRMC,225604.000,A,4530.4170,N,07334.7038,W,0.83,131.13,020413,,,A*7A
2013-04-02 22:56:05.978767;$GPGGA,225605.000,4530.4162,N,07334.7028,W,1,07,1.8,87.4,M,-31.9,M,,0000*56
2013-04-02 22:56:05.991889;$GPGSA,A,3,06,03,31,21,23,19,16,,,,,,2.7,1.8,2.0*36
2013-04-02 22:56:06.005935;$GPRMC,225605.000,A,4530.4162,N,07334.7028,W,1.70,130.27,020413,,,A*72
2013-04-02 22:56:06.978560;$GPGGA,225606.000,4530.4156,N,07334.7019,W,1,07,1.8,87.5,M,-31.9,M,,0000*51
2013-04-02 22:56:06.991691;$GPGSA,A,3,06,03,31,21,23,19,16,,,,,,2.7,1.8,2.0*36
2013-04-02 22:56:07.005761;$GPRMC,225606.000,A,4530.4156,N,07334.7019,W,1.19,131.65,020413,,,A*7C
2013-04-02 22:56:07.978897;$GPGGA,225607.000,4530.4150,N,07334.7012,W,1,07,1.8,87.6,M,-31.9,M,,0000*5E
2013-04-02 22:56:07.992050;$GPGSA,A,3,06,03,31,21,23,19,16,,,,,,2.7,1.8,2.0*36
2013-04-02 22:56:08.006094;$GPRMC,225607.000,A,4530.4150,N,07334.7012,W,0.71,134.39,020413,,,A*73
2013-04-02 22:56:08.979427;$GPGGA,225608.000,4530.4147,N,07334.7008,W,1,07,1.8,87.8,M,-31.9,M,,0000*52
2013-04-02 22:56:08.992487;$GPGSA,A,3,06,03,31,21,23,19,16,,,,,,2.7,1.8,2.0*36
2013-04-02 22:56:09.005844;$GPGSV,3,1,10,16,71,039,16,06,59,133,31,23,58,235,18,13,54,287,*70
2013-04-02 22:56:09.019395;$GPGSV,3,2,10,03,51,172,28,19,26,178,38,07,16,297,,31,14,109,25*7D
2013-04-02 22:56:09.027784;$GPGSV,3,3,10,21,10,067,33,10,08,308,*79
2013-04-02 22:56:09.142104;$GPRMC,225608.000,A,4530.4147,N,07334.7008,W,0.22,122.68,020413,,,A*74
2013-04-02 22:56:09.978490;$GPGGA,225609.000,4530.4145,N,07334.7005,W,1,07,1.8,88.2,M,-31.9,M,,0000*59
2013-04-02 22:56:09.991595;$GPGSA,A,3,06,03,31,21,23,19,16,,,,,,2.7,1.8,2.0*36
2013-04-02 22:56:10.005641;$GPRMC,225609.000,A,4530.4145,N,07334.7005,W,0.55,324.58,020413,,,A*7D
2013-04-02 22:56:10.978934;$GPGGA,225610.000,4530.4145,N,07334.7005,W,1,07,1.8,88.4,M,-31.9,M,,0000*57
2013-04-02 22:56:10.992106;$GPGSA,A,3,06,03,31,21,23,19,16,,,,,,2.7,1.8,2.0*36
2013-04-02 22:56:11.006250;$GPRMC,225610.000,A,4530.4145,N,07334.7005,W,1.42,315.05,020413,,,A*78
2013-04-02 22:56:11.949698;$GPGGA,225611.000,4530.4146,N,07334.7005,W,1,06,1.9,88.8,M,-31.9,M,,0000*59
2013-04-02 22:56:11.962383;$GPGSA,A,3,06,03,31,21,23,19,,,,,,,3.0,1.9,2.3*35
2013-04-02 22:56:11.976531;$GPRMC,225611.000,A,4530.4146,N,07334.7005,W,1.26,315.33,020413,,,A*7D
2013-04-02 22:56:12.999303;$GPGGA,225612.000,4530.4148,N,07334.7006,W,1,06,1.9,89.0,M,-31.9,M,,0000*5E
2013-04-02 22:56:13.012047;$GPGSA,A,3,06,03,31,21,23,19,,,,,,,3.0,1.9,2.3*35
2013-04-02 22:56:13.026176;$GPRMC,225612.000,A,4530.4148,N,07334.7006,W,1.00,315.03,020413,,,A*74
2013-04-02 22:56:13.998078;$GPGGA,225613.000,4530.4151,N,07334.7010,W,1,06,1.9,89.1,M,-31.9,M,,0000*51
2013-04-02 22:56:14.024986;$GPGSA,A,3,06,03,31,21,23,19,,,,,,,3.0,1.9,2.3*35
2013-04-02 22:56:14.039226;$GPGSV,3,1,10,16,71,039,,06,59,133,30,23,58,235,17,13,54,287,*79
2013-04-02 22:56:14.052756;$GPGSV,3,2,10,03,51,172,27,19,26,178,38,07,16,297,,31,14,109,25*72
2013-04-02 22:56:14.061245;$GPGSV,3,3,10,21,10,067,26,10,08,308,*7D
2013-04-02 22:56:14.124581;$GPRMC,225613.000,A,4530.4151,N,07334.7010,W,1.46,311.47,020413,,,A*7C
2013-04-02 22:56:14.978874;$GPGGA,225614.000,4530.4152,N,07334.7013,W,1,06,1.9,89.6,M,-31.9,M,,0000*51
2013-04-02 22:56:14.991642;$GPGSA,A,3,06,03,31,21,23,19,,,,,,,3.0,1.9,2.3*35
2013-04-02 22:56:15.005833;$GPRMC,225614.000,A,4530.4152,N,07334.7013,W,1.17,313.33,020413,,,A*7E
2013-04-02 22:56:15.944488;$GPGGA,225615.000,4530.4156,N,07334.7019,W,1,06,1.9,89.4,M,-31.9,M,,0000*5C
2013-04-02 22:56:15.957208;$GPGSA,A,3,06,03,31,21,23,19,,,,,,,3.0,1.9,2.3*35
2013-04-02 22:56:15.971449;$GPRMC,225615.000,A,4530.4156,N,07334.7019,W,1.23,313.51,020413,,,A*72
2013-04-02 22:56:16.981157;$GPGGA,225616.000,4530.4162,N,07334.7026,W,1,06,1.9,89.2,M,-31.9,M,,0000*52
2013-04-02 22:56:16.993911;$GPGSA,A,3,06,03,31,21,23,19,,,,,,,3.0,1.9,2.3*35
2013-04-02 22:56:17.008108;$GPRMC,225616.000,A,4530.4162,N,07334.7026,W,1.73,312.01,020413,,,A*7B
2013-04-02 22:56:17.994638;$GPGGA,225617.000,4530.4167,N,07334.7034,W,1,06,1.9,88.9,M,-31.9,M,,0000*5F
2013-04-02 22:56:18.007304;$GPGSA,A,3,06,03,31,21,23,19,,,,,,,3.0,1.9,2.3*35
2013-04-02 22:56:18.021465;$GPRMC,225617.000,A,4530.4167,N,07334.7034,W,1.47,312.20,020413,,,A*78
2013-04-02 22:56:18.987205;$GPGGA,225618.000,4530.4173,N,07334.7041,W,1,06,1.9,88.5,M,-31.9,M,,0000*5B
2013-04-02 22:56:19.000034;$GPGSA,A,3,06,03,31,21,23,19,,,,,,,3.0,1.9,2.3*35
2013-04-02 22:56:19.013108;$GPGSV,3,1,10,16,71,039,,06,59,133,30,23,58,235,17,13,54,287,*79
2013-04-02 22:56:19.026490;$GPGSV,3,2,10,03,51,172,26,19,26,178,38,07,16,297,,31,14,109,28*7E
2013-04-02 22:56:19.035048;$GPGSV,3,3,10,21,10,067,26,10,08,308,*7D
2013-04-02 22:56:19.123883;$GPRMC,225618.000,A,4530.4173,N,07334.7041,W,1.55,312.94,020413,,,A*7C
2013-04-02 22:56:19.986691;$GPGGA,225619.000,4530.4179,N,07334.7050,W,1,07,1.8,88.2,M,-31.9,M,,0000*57
2013-04-02 22:56:19.999733;$GPGSA,A,3,06,03,31,21,23,19,16,,,,,,2.7,1.8,2.0*36
2013-04-02 22:56:20.013877;$GPRMC,225619.000,A,4530.4179,N,07334.7050,W,2.19,317.33,020413,,,A*74
2013-04-02 22:56:20.993087;$GPGGA,225620.000,4530.4185,N,07334.7056,W,1,07,1.8,87.7,M,-31.9,M,,0000*52
2013-04-02 22:56:21.006115;$GPGSA,A,3,06,03,31,21,23,19,16,,,,,,2.7,1.8,2.0*36
2013-04-02 22:56:21.020254;$GPRMC,225620.000,A,4530.4185,N,07334.7056,W,1.42,325.34,020413,,,A*70
2013-04-02 22:56:21.978756;$GPGGA,225621.000,4530.4188,N,07334.7058,W,1,07,1.8,87.5,M,-31.9,M,,0000*52
2013-04-02 22:56:22.001270;$GPGSA,A,3,06,03,31,21,23,19,16,,,,,,2.7,1.8,2.0*36
2013-04-02 22:56:22.022144;$GPRMC,225621.000,A,4530.4188,N,07334.7058,W,0.81,345.15,020413,,,A*79
2013-04-02 22:56:22.979111;$GPGGA,225622.000,4530.4190,N,07334.7060,W,1,07,1.8,87.5,M,-31.9,M,,0000*53
2013-04-02 22:56:22.992107;$GPGSA,A,3,06,03,31,21,23,19,16,,,,,,2.7,1.8,2.0*36
2013-04-02 22:56:23.006169;$GPRMC,225622.000,A,4530.4190,N,07334.7060,W,0.53,335.32,020413,,,A*75
2013-04-02 22:56:23.991471;$GPGGA,225623.000,4530.4190,N,07334.7060,W,1,07,1.8,87.6,M,-31.9,M,,0000*51
2013-04-02 22:56:24.004645;$GPGSA,A,3,06,03,31,21,23,19,16,,,,,,2.7,1.8,2.0*36
2013-04-02 22:56:24.018126;$GPGSV,3,1,10,16,71,039,13,06,59,133,29,23,58,235,18,13,54,287,*7C
2013-04-02 22:56:24.031483;$GPGSV,3,2,10,03,51,172,26,19,26,178,37,07,16,297,,31,14,109,28*71
2013-04-02 22:56:24.040066;$GPGSV,3,3,10,21,10,067,26,10,08,308,*7D
2013-04-02 22:56:24.136181;$GPRMC,225623.000,A,4530.4190,N,07334.7060,W,0.17,5.86,020413,,,A*7B
2013-04-02 22:56:24.987116;$GPGGA,225624.000,4530.4191,N,07334.7060,W,1,07,1.8,87.7,M,-31.9,M,,0000*56
2013-04-02 22:56:25.000292;$GPGSA,A,3,06,03,31,21,23,19,16,,,,,,2.7,1.8,2.0*36
2013-04-02 22:56:25.014470;$GPRMC,225624.000,A,4530.4191,N,07334.7060,W,0.04,262.30,020413,,,A*71
2013-04-02 22:56:25.978680;$GPGGA,225625.000,4530.4190,N,07334.7061,W,1,07,1.8,88.1,M,-31.9,M,,0000*5E
2013-04-02 22:56:25.991664;$GPGSA,A,3,06,03,31,21,23,19,16,,,,,,2.7,1.8,2.0*36
2013-04-02 22:56:26.005913;$GPRMC,225625.000,A,4530.4190,N,07334.7061,W,0.42,120.96,020413,,,A*7B
2013-04-02 22:56:26.989283;$GPGGA,225626.000,4530.4193,N,07334.7066,W,1,05,3.2,88.0,M,-31.9,M,,0000*52
2013-04-02 22:56:27.001691;$GPGSA,A,3,06,03,31,21,19,,,,,,,,4.0,3.2,2.4*3D
2013-04-02 22:56:27.015554;$GPRMC,225626.000,A,4530.4193,N,07334.7066,W,0.16,92.78,020413,,,A*45
2013-04-02 22:56:27.978701;$GPGGA,225627.000,4530.4195,N,07334.7071,W,1,05,3.2,88.0,M,-31.9,M,,0000*53
2013-04-02 22:56:27.999636;$GPGSA,A,3,06,03,31,21,19,,,,,,,,4.0,3.2,2.4*3D
2013-04-02 22:56:28.020968;$GPRMC,225627.000,A,4530.4195,N,07334.7071,W,0.07,34.94,020413,,,A*4A
2013-04-02 22:56:28.979836;$GPGGA,225628.000,4530.4198,N,07334.7076,W,1,05,3.2,87.9,M,-31.9,M,,0000*50
2013-04-02 22:56:28.992246;$GPGSA,A,3,06,03,31,21,19,,,,,,,,4.0,3.2,2.4*3D
2013-04-02 22:56:29.004884;$GPGSV,3,1,10,16,71,039,,06,59,133,29,23,58,235,,13,54,287,*77
2013-04-02 22:56:29.027024;$GPGSV,3,2,10,03,51,172,25,19,26,178,37,07,16,297,,31,14,109,26*7C
2013-04-02 22:56:29.035711;$GPGSV,3,3,10,21,10,067,27,10,08,308,*7C
2013-04-02 22:56:29.117310;$GPRMC,225628.000,A,4530.4198,N,07334.7076,W,0.19,320.83,020413,,,A*70
2013-04-02 22:56:29.977867;$GPGGA,225629.000,4530.4197,N,07334.7075,W,1,06,1.9,88.1,M,-31.9,M,,0000*50
2013-04-02 22:56:29.990607;$GPGSA,A,3,06,03,31,21,23,19,,,,,,,3.0,1.9,2.3*35
2013-04-02 22:56:30.004793;$GPRMC,225629.000,A,4530.4197,N,07334.7075,W,0.86,311.42,020413,,,A*74
2013-04-02 22:56:30.949643;$GPGGA,225630.000,4530.4204,N,07334.7088,W,1,05,3.2,88.1,M,-31.9,M,,0000*59
2013-04-02 22:56:30.961899;$GPGSA,A,3,06,03,31,21,19,,,,,,,,4.0,3.2,2.4*3D
2013-04-02 22:56:30.975913;$GPRMC,225630.000,A,4530.4204,N,07334.7088,W,2.35,302.35,020413,,,A*7F
2013-04-02 22:56:31.999290;$GPGGA,225631.000,4530.4209,N,07334.7099,W,1,05,3.2,88.0,M,-31.9,M,,0000*54
2013-04-02 22:56:32.011669;$GPGSA,A,3,06,03,31,21,19,,,,,,,,4.0,3.2,2.4*3D
2013-04-02 22:56:32.025872;$GPRMC,225631.000,A,4530.4209,N,07334.7099,W,1.99,310.81,020413,,,A*7A
2013-04-02 22:56:32.995800;$GPGGA,225632.000,4530.4213,N,07334.7107,W,1,05,3.2,87.8,M,-31.9,M,,0000*5D
2013-04-02 22:56:33.025226;$GPGSA,A,3,06,03,31,21,19,,,,,,,,4.0,3.2,2.4*3D
2013-04-02 22:56:33.039590;$GPRMC,225632.000,A,4530.4213,N,07334.7107,W,1.52,313.82,020413,,,A*73
2013-04-02 22:56:33.979366;$GPGGA,225633.000,4530.4214,N,07334.7107,W,1,06,1.9,88.0,M,-31.9,M,,0000*56
2013-04-02 22:56:33.992038;$GPGSA,A,3,06,03,31,21,23,19,,,,,,,3.0,1.9,2.3*35
2013-04-02 22:56:34.005206;$GPGSV,3,1,10,16,71,039,,06,59,133,29,23,58,235,17,13,54,287,*71
2013-04-02 22:56:34.018826;$GPGSV,3,2,10,03,51,172,25,19,26,178,37,07,16,297,,31,14,109,25*7F
2013-04-02 22:56:34.036093;$GPGSV,3,3,10,21,10,067,28,10,08,308,*73
2013-04-02 22:56:34.127315;$GPRMC,225633.000,A,4530.4214,N,07334.7107,W,1.59,311.40,020413,,,A*72
2013-04-02 22:56:34.978762;$GPGGA,225634.000,4530.4212,N,07334.7104,W,1,06,1.9,88.3,M,-31.9,M,,0000*57
2013-04-02 22:56:34.991493;$GPGSA,A,3,06,03,31,21,23,19,,,,,,,3.0,1.9,2.3*35
2013-04-02 22:56:35.005653;$GPRMC,225634.000,A,4530.4212,N,07334.7104,W,1.17,310.78,020413,,,A*70
2013-04-02 22:56:35.978487;$GPGGA,225635.000,4530.4211,N,07334.7102,W,1,06,1.9,88.4,M,-31.9,M,,0000*54
2013-04-02 22:56:35.991268;$GPGSA,A,3,06,03,31,21,23,19,,,,,,,3.0,1.9,2.3*35
2013-04-02 22:56:36.005426;$GPRMC,225635.000,A,4530.4211,N,07334.7102,W,0.69,310.31,020413,,,A*71
2013-04-02 22:56:36.978731;$GPGGA,225636.000,4530.4214,N,07334.7108,W,1,05,3.2,88.3,M,-31.9,M,,0000*55
2013-04-02 22:56:36.991052;$GPGSA,A,3,06,03,31,21,19,,,,,,,,4.0,3.2,2.4*3D
2013-04-02 22:56:37.005192;$GPRMC,225636.000,A,4530.4214,N,07334.7108,W,0.39,321.76,020413,,,A*79
2013-04-02 22:56:37.978778;$GPGGA,225637.000,4530.4217,N,07334.7114,W,1,06,2.6,88.2,M,-31.9,M,,0000*5D
2013-04-02 22:56:37.991504;$GPGSA,A,3,06,03,31,21,19,16,,,,,,,3.5,2.6,2.3*3A
2013-04-02 22:56:38.005708;$GPRMC,225637.000,A,4530.4217,N,07334.7114,W,0.30,144.21,020413,,,A*7C
2013-04-02 22:56:38.979170;$GPGGA,225638.000,4530.4223,N,07334.7121,W,1,06,2.6,88.6,M,-31.9,M,,0000*57
2013-04-02 22:56:38.991849;$GPGSA,A,3,06,03,31,21,19,16,,,,,,,3.5,2.6,2.3*3A
2013-04-02 22:56:39.004992;$GPGSV,3,1,10,16,71,039,17,06,59,133,29,23,58,235,,13,54,287,*71
2013-04-02 22:56:39.018601;$GPGSV,3,2,10,03,51,172,28,19,26,178,15,07,16,297,,31,14,109,26*71
2013-04-02 22:56:39.027018;$GPGSV,3,3,10,21,10,067,26,10,08,308,*7D
2013-04-02 22:56:39.124510;$GPRMC,225638.000,A,4530.4223,N,07334.7121,W,0.34,188.87,020413,,,A*7A
2013-04-02 22:56:39.978718;$GPGGA,225639.000,4530.4226,N,07334.7124,W,1,06,2.6,89.6,M,-31.9,M,,0000*57
2013-04-02 22:56:39.991350;$GPGSA,A,3,06,03,31,21,19,16,,,,,,,3.5,2.6,2.3*3A
2013-04-02 22:56:40.005453;$GPRMC,225639.000,A,4530.4226,N,07334.7124,W,0.17,280.52,020413,,,A*79
2013-04-02 22:56:40.978416;$GPGGA,225640.000,4530.4229,N,07334.7128,W,1,06,2.6,90.2,M,-31.9,M,,0000*56
2013-04-02 22:56:40.991117;$GPGSA,A,3,06,03,31,21,19,16,,,,,,,3.5,2.6,2.3*3A
2013-04-02 22:56:41.005231;$GPRMC,225640.000,A,4530.4229,N,07334.7128,W,0.53,254.75,020413,,,A*78
2013-04-02 22:56:41.978594;$GPGGA,225641.000,4530.4233,N,07334.7138,W,1,07,1.8,90.5,M,-31.9,M,,0000*56
2013-04-02 22:56:41.991616;$GPGSA,A,3,06,03,31,21,23,19,16,,,,,,2.7,1.8,2.0*36
2013-04-02 22:56:42.005779;$GPRMC,225641.000,A,4530.4233,N,07334.7138,W,1.29,280.91,020413,,,A*7C
2013-04-02 22:56:42.978356;$GPGGA,225642.000,4530.4240,N,07334.7157,W,1,06,1.9,89.7,M,-31.9,M,,0000*52
2013-04-02 22:56:42.991396;$GPGSA,A,3,06,03,31,21,23,19,,,,,,,3.0,1.9,2.3*35
2013-04-02 22:56:43.005569;$GPRMC,225642.000,A,4530.4240,N,07334.7157,W,0.82,223.87,020413,,,A*7C
2013-04-02 22:56:43.979294;$GPGGA,225643.000,4530.4246,N,07334.7171,W,1,06,1.9,89.2,M,-31.9,M,,0000*54
2013-04-02 22:56:43.991950;$GPGSA,A,3,06,03,31,21,23,19,,,,,,,3.0,1.9,2.3*35
2013-04-02 22:56:44.005090;$GPGSV,3,1,10,16,71,039,,06,59,133,21,23,58,235,22,13,54,287,*7F
2013-04-02 22:56:44.018720;$GPGSV,3,2,10,03,51,172,23,19,26,178,28,07,16,297,,31,14,109,21*73
2013-04-02 22:56:44.027163;$GPGSV,3,3,10,21,10,067,19,10,08,308,*71
2013-04-02 22:56:44.123241;$GPRMC,225643.000,A,4530.4246,N,07334.7171,W,0.91,300.51,020413,,,A*76
2013-04-02 22:56:44.978673;$GPGGA,225644.000,4530.4254,N,07334.7184,W,1,06,1.9,88.8,M,-31.9,M,,0000*51
2013-04-02 22:56:44.991345;$GPGSA,A,3,06,03,31,21,23,19,,,,,,,3.0,1.9,2.3*35
2013-04-02 22:56:45.005442;$GPRMC,225644.000,A,4530.4254,N,07334.7184,W,1.40,316.51,020413,,,A*72
2013-04-02 22:56:45.978661;$GPGGA,225645.000,4530.4262,N,07334.7196,W,1,06,1.9,88.4,M,-31.9,M,,0000*5A
2013-04-02 22:56:45.991368;$GPGSA,A,3,06,03,31,21,23,19,,,,,,,3.0,1.9,2.3*35
2013-04-02 22:56:46.005512;$GPRMC,225645.000,A,4530.4262,N,07334.7196,W,1.29,324.05,020413,,,A*7A
2013-04-02 22:56:46.978618;$GPGGA,225646.000,4530.4272,N,07334.7207,W,1,06,1.9,87.3,M,-31.9,M,,0000*5B
2013-04-02 22:56:46.991329;$GPGSA,A,3,06,03,31,21,23,19,,,,,,,3.0,1.9,2.3*35
2013-04-02 22:56:47.005603;$GPRMC,225646.000,A,4530.4272,N,07334.7207,W,3.08,354.84,020413,,,A*7C
2013-04-02 22:56:47.978592;$GPGGA,225647.000,4530.4287,N,07334.7206,W,1,06,1.9,86.7,M,-31.9,M,,0000*54
2013-04-02 22:56:47.991339;$GPGSA,A,3,06,03,31,21,23,19,,,,,,,3.0,1.9,2.3*35
2013-04-02 22:56:48.005116;$GPRMC,225647.000,A,4530.4287,N,07334.7206,W,5.87,7.54,020413,,,A*7F
2013-04-02 22:56:48.950054;$GPGGA,225648.000,4530.4301,N,07334.7205,W,1,04,3.4,86.6,M,-31.9,M,,0000*5B
2013-04-02 22:56:48.962139;$GPGSA,A,3,06,03,23,19,,,,,,,,,4.6,3.4,3.0*38
2013-04-02 22:56:48.975276;$GPGSV,3,1,10,16,71,039,,06,59,133,29,23,58,235,22,13,54,287,*77
2013-04-02 22:56:48.988416;$GPGSV,3,2,10,03,51,172,23,19,26,178,13,07,16,297,,31,14,109,*78
2013-04-02 22:56:48.996653;$GPGSV,3,3,10,21,10,067,,10,08,308,*79
2013-04-02 22:56:49.102463;$GPRMC,225648.000,A,4530.4301,N,07334.7205,W,5.71,350.49,020413,,,A*78
2013-04-02 22:56:49.999613;$GPGGA,225649.000,4530.4313,N,07334.7219,W,1,05,2.2,85.8,M,-31.9,M,,0000*5F
2013-04-02 22:56:50.012005;$GPGSA,A,3,06,03,21,23,19,,,,,,,,3.1,2.2,2.3*3E
2013-04-02 22:56:50.025976;$GPRMC,225649.000,A,4530.4313,N,07334.7219,W,3.28,337.02,020413,,,A*73
2013-04-02 22:56:50.995510;$GPGGA,225650.000,4530.4323,N,07334.7225,W,1,05,2.2,86.2,M,-31.9,M,,0000*52
2013-04-02 22:56:51.024819;$GPGSA,A,3,06,03,21,23,19,,,,,,,,3.1,2.2,2.3*3E
2013-04-02 22:56:51.039243;$GPRMC,225650.000,A,4530.4323,N,07334.7225,W,3.48,338.29,020413,,,A*77
2013-04-02 22:56:51.978427;$GPGGA,225651.000,4530.4335,N,07334.7233,W,1,05,2.2,86.5,M,-31.9,M,,0000*54
2013-04-02 22:56:51.990857;$GPGSA,A,3,06,03,21,23,19,,,,,,,,3.1,2.2,2.3*3E
2013-04-02 22:56:52.004970;$GPRMC,225651.000,A,4530.4335,N,07334.7233,W,2.92,349.55,020413,,,A*7D
2013-04-02 22:56:52.979041;$GPGGA,225652.000,4530.4340,N,07334.7239,W,1,06,2.0,86.0,M,-31.9,M,,0000*5B
2013-04-02 22:56:52.991841;$GPGSA,A,3,06,03,21,23,19,16,,,,,,,2.9,2.0,2.0*31
2013-04-02 22:56:53.006043;$GPRMC,225652.000,A,4530.4340,N,07334.7239,W,1.47,356.01,020413,,,A*72
2013-04-02 22:56:53.979493;$GPGGA,225653.000,4530.4346,N,07334.7250,W,1,06,2.0,84.5,M,-31.9,M,,0000*54
2013-04-02 22:56:53.992201;$GPGSA,A,3,06,03,21,23,19,16,,,,,,,2.9,2.0,2.0*31
2013-04-02 22:56:54.005693;$GPGSV,3,1,10,16,71,039,19,06,59,133,22,23,58,235,22,13,54,287,*74
2013-04-02 22:56:54.018842;$GPGSV,3,2,10,03,51,172,23,19,26,178,25,07,16,297,,31,14,109,*7D
2013-04-02 22:56:54.027253;$GPGSV,3,3,10,21,10,067,16,10,08,308,*7E
2013-04-02 22:56:54.123644;$GPRMC,225653.000,A,4530.4346,N,07334.7250,W,1.84,314.06,020413,,,A*74
2013-04-02 22:56:54.978736;$GPGGA,225654.000,4530.4347,N,07334.7258,W,1,05,2.7,83.3,M,-31.9,M,,0000*5F
2013-04-02 22:56:54.991074;$GPGSA,A,3,03,21,23,19,16,,,,,,,,3.8,2.7,2.7*37
2013-04-02 22:56:55.005260;$GPRMC,225654.000,A,4530.4347,N,07334.7258,W,2.28,304.04,020413,,,A*7C
2013-04-02 22:56:55.979070;$GPGGA,225655.000,4530.4337,N,07334.7242,W,1,05,2.7,84.4,M,-31.9,M,,0000*52
2013-04-02 22:56:55.991413;$GPGSA,A,3,03,21,23,19,16,,,,,,,,3.8,2.7,2.7*37
2013-04-02 22:56:56.005351;$GPRMC,225655.000,A,4530.4337,N,07334.7242,W,1.11,42.11,020413,,,A*4D
2013-04-02 22:56:56.979228;$GPGGA,225656.000,4530.4343,N,07334.7242,W,1,06,2.7,85.4,M,-31.9,M,,0000*50
2013-04-02 22:56:56.991969;$GPGSA,A,3,31,03,21,06,19,16,,,,,,,3.5,2.7,2.3*3B
2013-04-02 22:56:57.006106;$GPRMC,225656.000,A,4530.4343,N,07334.7242,W,1.41,306.07,020413,,,A*7C
2013-04-02 22:56:57.991088;$GPGGA,225657.000,4530.4352,N,07334.7244,W,1,06,2.7,86.0,M,-31.9,M,,0000*50
2013-04-02 22:56:58.003868;$GPGSA,A,3,31,03,21,06,19,16,,,,,,,3.5,2.7,2.3*3B
2013-04-02 22:56:58.017979;$GPRMC,225657.000,A,4530.4352,N,07334.7244,W,1.20,320.56,020413,,,A*7C
2013-04-02 22:56:58.994333;$GPGGA,225658.000,4530.4357,N,07334.7248,W,1,06,2.7,85.8,M,-31.9,M,,0000*5D
2013-04-02 22:56:59.007004;$GPGSA,A,3,31,03,21,06,19,16,,,,,,,3.5,2.7,2.3*3B
2013-04-02 22:56:59.020600;$GPGSV,3,1,10,16,71,039,18,06,59,133,23,23,58,235,07,13,54,287,*73
2013-04-02 22:56:59.034137;$GPGSV,3,2,10,03,51,172,32,19,26,178,35,07,16,297,,31,14,109,29*77
2013-04-02 22:56:59.042694;$GPGSV,3,3,10,21,10,067,22,10,08,308,*79
2013-04-02 22:56:59.133366;$GPRMC,225658.000,A,4530.4357,N,07334.7248,W,0.95,320.77,020413,,,A*76
2013-04-02 22:56:59.978651;$GPGGA,225659.000,4530.4364,N,07334.7249,W,1,06,2.7,86.1,M,-31.9,M,,0000*57
2013-04-02 22:56:59.991288;$GPGSA,A,3,31,03,21,06,19,16,,,,,,,3.5,2.7,2.3*3B
2013-04-02 22:57:00.005385;$GPRMC,225659.000,A,4530.4364,N,07334.7249,W,0.80,329.04,020413,,,A*7F
2013-04-02 22:57:00.987822;$GPGGA,225700.000,4530.4368,N,07334.7255,W,1,06,2.7,85.1,M,-31.9,M,,0000*58
2013-04-02 22:57:01.000672;$GPGSA,A,3,31,03,21,06,19,16,,,,,,,3.5,2.7,2.3*3B
2013-04-02 22:57:01.014811;$GPRMC,225700.000,A,4530.4368,N,07334.7255,W,0.56,318.10,020413,,,A*7F
2013-04-02 22:57:01.944200;$GPGGA,225701.000,4530.4371,N,07334.7256,W,1,05,3.2,85.2,M,-31.9,M,,0000*56
2013-04-02 22:57:01.956571;$GPGSA,A,3,31,03,21,06,19,,,,,,,,4.0,3.2,2.4*3D
2013-04-02 22:57:01.970820;$GPRMC,225701.000,A,4530.4371,N,07334.7256,W,0.47,319.33,020413,,,A*75
2013-04-02 22:57:02.988163;$GPGGA,225702.000,4530.4373,N,07334.7259,W,1,05,3.2,84.9,M,-31.9,M,,0000*52
2013-04-02 22:57:03.000683;$GPGSA,A,3,31,03,21,06,19,,,,,,,,4.0,3.2,2.4*3D
2013-04-02 22:57:03.030637;$GPRMC,225702.000,A,4530.4373,N,07334.7259,W,0.26,304.60,020413,,,A*76
2013-04-02 22:57:03.994821;$GPGGA,225703.000,4530.4375,N,07334.7265,W,1,05,3.2,84.1,M,-31.9,M,,0000*52
2013-04-02 22:57:04.007129;$GPGSA,A,3,31,03,21,06,19,,,,,,,,4.0,3.2,2.4*3D
2013-04-02 22:57:04.020340;$GPGSV,3,1,10,16,71,039,09,06,59,133,25,23,58,235,,13,54,287,*72
2013-04-02 22:57:04.038332;$GPGSV,3,2,10,03,51,172,32,19,26,178,36,07,16,297,,31,14,109,29*74
2013-04-02 22:57:04.057214;$GPGSV,3,3,10,21,10,067,28,10,08,308,*73
2013-04-02 22:57:04.126342;$GPRMC,225703.000,A,4530.4375,N,07334.7265,W,0.32,315.40,020413,,,A*79
2013-04-02 22:57:04.978383;$GPGGA,225704.000,4530.4378,N,07334.7273,W,1,05,3.2,82.6,M,-31.9,M,,0000*5E
2013-04-02 22:57:04.990759;$GPGSA,A,3,31,03,21,06,19,,,,,,,,4.0,3.2,2.4*3D
2013-04-02 22:57:05.004957;$GPRMC,225704.000,A,4530.4378,N,07334.7273,W,0.39,308.18,020413,,,A*7E
2013-04-02 22:57:05.985721;$GPGGA,225705.000,4530.4379,N,07334.7278,W,1,05,3.2,81.3,M,-31.9,M,,0000*53
2013-04-02 22:57:05.998097;$GPGSA,A,3,31,03,21,06,19,,,,,,,,4.0,3.2,2.4*3D
2013-04-02 22:57:06.012251;$GPRMC,225705.000,A,4530.4379,N,07334.7278,W,0.29,303.98,020413,,,A*77
2013-04-02 22:57:06.987251;$GPGGA,225706.000,4530.4380,N,07334.7284,W,1,05,3.2,79.8,M,-31.9,M,,0000*59
2013-04-02 22:57:07.006945;$GPGSA,A,3,31,03,21,06,19,,,,,,,,4.0,3.2,2.4*3D
2013-04-02 22:57:07.021343;$GPRMC,225706.000,A,4530.4380,N,07334.7284,W,0.34,295.75,020413,,,A*70
2013-04-02 22:57:07.949802;$GPGGA,225707.000,4530.4381,N,07334.7290,W,1,05,3.2,78.5,M,-31.9,M,,0000*50
2013-04-02 22:57:07.962121;$GPGSA,A,3,31,03,21,06,19,,,,,,,,4.0,3.2,2.4*3D
2013-04-02 22:57:07.976302;$GPRMC,225707.000,A,4530.4381,N,07334.7290,W,0.37,299.49,020413,,,A*75
2013-04-02 22:57:08.999697;$GPGGA,225708.000,4530.4369,N,07334.7276,W,1,07,1.8,78.0,M,-31.9,M,,0000*5E
2013-04-02 22:57:09.012777;$GPGSA,A,3,31,03,21,06,23,19,16,,,,,,2.7,1.8,2.0*36
2013-04-02 22:57:09.026317;$GPGSV,3,1,10,16,71,039,20,06,59,133,26,23,58,235,19,13,54,287,*72
2013-04-02 22:57:09.048368;$GPGSV,3,2,10,03,51,172,33,19,26,178,36,07,16,297,,31,14,109,29*75
2013-04-02 22:57:09.064141;$GPGSV,3,3,10,21,10,067,29,10,08,308,*72
2013-04-02 22:57:09.143069;$GPRMC,225708.000,A,4530.4369,N,07334.7276,W,0.45,124.76,020413,,,A*78
2013-04-02 22:57:09.996032;$GPGGA,225709.000,4530.4354,N,07334.7256,W,1,07,1.8,77.6,M,-31.9,M,,0000*5A
2013-04-02 22:57:10.026535;$GPGSA,A,3,31,03,21,06,23,19,16,,,,,,2.7,1.8,2.0*36
2013-04-02 22:57:10.041024;$GPRMC,225709.000,A,4530.4354,N,07334.7256,W,0.37,158.35,020413,,,A*7C
2013-04-02 22:57:10.978653;$GPGGA,225710.000,4530.4337,N,07334.7235,W,1,07,1.8,77.6,M,-31.9,M,,0000*52
2013-04-02 22:57:10.991788;$GPGSA,A,3,31,03,21,06,23,19,16,,,,,,2.7,1.8,2.0*36
2013-04-02 22:57:11.005710;$GPRMC,225710.000,A,4530.4337,N,07334.7235,W,0.16,96.93,020413,,,A*48
2013-04-02 22:57:11.978582;$GPGGA,225711.000,4530.4323,N,07334.7217,W,1,07,1.8,77.3,M,-31.9,M,,0000*53
2013-04-02 22:57:11.991702;$GPGSA,A,3,31,03,21,06,23,19,16,,,,,,2.7,1.8,2.0*36
2013-04-02 22:57:12.005852;$GPRMC,225711.000,A,4530.4323,N,07334.7217,W,0.15,177.50,020413,,,A*7E
2013-04-02 22:57:12.978729;$GPGGA,225712.000,4530.4307,N,07334.7198,W,1,07,1.8,77.2,M,-31.9,M,,0000*53
2013-04-02 22:57:12.991849;$GPGSA,A,3,31,03,21,06,23,19,16,,,,,,2.7,1.8,2.0*36
2013-04-02 22:57:13.006025;$GPRMC,225712.000,A,4530.4307,N,07334.7198,W,0.49,144.63,020413,,,A*76
2013-04-02 22:57:13.979227;$GPGGA,225713.000,4530.4297,N,07334.7189,W,1,07,1.8,76.6,M,-31.9,M,,0000*5F
2013-04-02 22:57:13.992302;$GPGSA,A,3,31,03,21,06,23,19,16,,,,,,2.7,1.8,2.0*36
2013-04-02 22:57:14.005758;$GPGSV,3,1,10,16,71,039,21,06,59,133,27,23,58,235,20,13,54,287,*78
2013-04-02 22:57:14.019295;$GPGSV,3,2,10,03,51,172,33,19,26,178,36,07,16,297,,31,14,109,29*75
2013-04-02 22:57:14.027722;$GPGSV,3,3,10,21,10,067,30,10,08,308,*7A
2013-04-02 22:57:14.141675;$GPRMC,225713.000,A,4530.4297,N,07334.7189,W,0.26,186.03,020413,,,A*7E
2013-04-02 22:57:14.978994;$GPGGA,225714.000,4530.4288,N,07334.7178,W,1,07,1.8,77.1,M,-31.9,M,,0000*5E
2013-04-02 22:57:14.992094;$GPGSA,A,3,31,03,21,06,23,19,16,,,,,,2.7,1.8,2.0*36
2013-04-02 22:57:15.006271;$GPRMC,225714.000,A,4530.4288,N,07334.7178,W,0.98,309.98,020413,,,A*7B
2013-04-02 22:57:15.978416;$GPGGA,225715.000,4530.4278,N,07334.7164,W,1,07,1.8,77.9,M,-31.9,M,,0000*55
2013-04-02 22:57:15.991609;$GPGSA,A,3,31,03,21,06,23,19,16,,,,,,2.7,1.8,2.0*36
2013-04-02 22:57:16.005648;$GPRMC,225715.000,A,4530.4278,N,07334.7164,W,0.26,327.35,020413,,,A*76
2013-04-02 22:57:16.978361;$GPGGA,225716.000,4530.4267,N,07334.7146,W,1,07,1.8,79.0,M,-31.9,M,,0000*5F
2013-04-02 22:57:16.991498;$GPGSA,A,3,31,03,21,06,23,19,16,,,,,,2.7,1.8,2.0*36
2013-04-02 22:57:17.005491;$GPRMC,225716.000,A,4530.4267,N,07334.7146,W,0.61,119.26,020413,,,A*75
2013-04-02 22:57:17.978897;$GPGGA,225717.000,4530.4259,N,07334.7133,W,1,07,1.8,79.7,M,-31.9,M,,0000*56
2013-04-02 22:57:17.991985;$GPGSA,A,3,31,03,21,06,23,19,16,,,,,,2.7,1.8,2.0*36
2013-04-02 22:57:18.006076;$GPRMC,225717.000,A,4530.4259,N,07334.7133,W,0.32,123.29,020413,,,A*7B
2013-04-02 22:57:18.979081;$GPGGA,225718.000,4530.4250,N,07334.7118,W,1,07,1.8,80.8,M,-31.9,M,,0000*50
2013-04-02 22:57:18.992163;$GPGSA,A,3,31,03,21,06,23,19,16,,,,,,2.7,1.8,2.0*36
2013-04-02 22:57:19.005625;$GPGSV,3,1,10,16,71,039,21,06,59,133,26,23,58,235,20,13,54,287,*79
2013-04-02 22:57:19.019279;$GPGSV,3,2,10,03,51,172,33,19,26,178,35,07,16,297,,31,14,109,29*76
2013-04-02 22:57:19.027686;$GPGSV,3,3,10,21,10,067,31,10,08,308,*7B
2013-04-02 22:57:19.140038;$GPRMC,225718.000,A,4530.4250,N,07334.7118,W,0.12,281.15,020413,,,A*72
2013-04-02 22:57:19.978766;$GPGGA,225719.000,4530.4241,N,07334.7103,W,1,07,1.8,81.7,M,-31.9,M,,0000*55
2013-04-02 22:57:19.991824;$GPGSA,A,3,31,03,21,06,23,19,16,,,,,,2.7,1.8,2.0*36
2013-04-02 22:57:20.005866;$GPRMC,225719.000,A,4530.4241,N,07334.7103,W,0.22,306.99,020413,,,A*70
2013-04-02 22:57:20.978683;$GPGGA,225720.000,4530.4233,N,07334.7090,W,1,07,1.8,82.8,M,-31.9,M,,0000*5D
2013-04-02 22:57:20.991742;$GPGSA,A,3,31,03,21,06,23,19,16,,,,,,2.7,1.8,2.0*36
2013-04-02 22:57:21.005656;$GPRMC,225720.000,A,4530.4233,N,07334.7090,W,0.35,73.35,020413,,,A*45
2013-04-02 22:57:21.978644;$GPGGA,225721.000,4530.4229,N,07334.7078,W,1,07,1.8,84.2,M,-31.9,M,,0000*5D
2013-04-02 22:57:21.991712;$GPGSA,A,3,31,03,21,06,23,19,16,,,,,,2.7,1.8,2.0*36
2013-04-02 22:57:22.005764;$GPRMC,225721.000,A,4530.4229,N,07334.7078,W,0.45,103.66,020413,,,A*7E
2013-04-02 22:57:22.980480;$GPGGA,225722.000,4530.4228,N,07334.7073,W,1,07,1.8,85.3,M,-31.9,M,,0000*54
2013-04-02 22:57:23.003718;$GPGSA,A,3,31,03,21,06,23,19,16,,,,,,2.7,1.8,2.0*36
2013-04-02 22:57:23.027627;$GPRMC,225722.000,A,4530.4228,N,07334.7073,W,0.25,31.46,020413,,,A*43
2013-04-02 22:57:24.009610;$GPGGA,225723.000,4530.4225,N,07334.7067,W,1,07,1.8,85.9,M,-31.9,M,,0000*57
2013-04-02 22:57:24.022886;$GPGSA,A,3,31,03,21,06,23,19,16,,,,,,2.7,1.8,2.0*36
2013-04-02 22:57:24.036362;$GPGSV,3,1,10,16,71,039,21,06,59,133,25,23,58,235,21,13,54,287,*7B
2013-04-02 22:57:24.049807;$GPGSV,3,2,10,03,51,172,33,19,26,178,35,07,16,297,,31,14,109,28*77
2013-04-02 22:57:24.058326;$GPGSV,3,3,10,21,10,067,31,10,08,308,*7B
2013-04-02 22:57:24.139921;$GPRMC,225723.000,A,4530.4225,N,07334.7067,W,0.66,105.08,020413,,,A*71
2013-04-02 22:57:24.995428;$GPGGA,225724.000,4530.4220,N,07334.7055,W,1,07,1.8,87.5,M,-31.9,M,,0000*5A
2013-04-02 22:57:25.025567;$GPGSA,A,3,31,03,21,06,23,19,16,,,,,,2.7,1.8,2.0*36
2013-04-02 22:57:25.039935;$GPRMC,225724.000,A,4530.4220,N,07334.7055,W,0.55,106.85,020413,,,A*74
2013-04-02 22:57:25.978649;$GPGGA,225725.000,4530.4216,N,07334.7043,W,1,07,1.8,88.5,M,-31.9,M,,0000*56
2013-04-02 22:57:25.991684;$GPGSA,A,3,31,03,21,06,23,19,16,,,,,,2.7,1.8,2.0*36
2013-04-02 22:57:26.005704;$GPRMC,225725.000,A,4530.4216,N,07334.7043,W,0.80,120.45,020413,,,A*77
2013-04-02 22:57:26.978730;$GPGGA,225726.000,4530.4212,N,07334.7034,W,1,07,1.8,89.3,M,-31.9,M,,0000*56
2013-04-02 22:57:26.991969;$GPGSA,A,3,31,03,21,06,23,19,16,,,,,,2.7,1.8,2.0*36
2013-04-02 22:57:27.006048;$GPRMC,225726.000,A,4530.4212,N,07334.7034,W,0.74,119.17,020413,,,A*76
2013-04-02 22:57:27.978654;$GPGGA,225727.000,4530.4209,N,07334.7024,W,1,07,1.8,90.3,M,-31.9,M,,0000*54
2013-04-02 22:57:27.991997;$GPGSA,A,3,31,03,21,06,23,19,16,,,,,,2.7,1.8,2.0*36
2013-04-02 22:57:28.006148;$GPRMC,225727.000,A,4530.4209,N,07334.7024,W,1.19,124.88,020413,,,A*7E
2013-04-02 22:57:28.979278;$GPGGA,225728.000,4530.4205,N,07334.7011,W,1,07,1.8,91.6,M,-31.9,M,,0000*55
2013-04-02 22:57:28.992459;$GPGSA,A,3,31,03,21,06,23,19,16,,,,,,2.7,1.8,2.0*36
2013-04-02 22:57:29.005861;$GPGSV,3,1,10,16,71,039,20,06,59,133,23,23,58,235,21,13,54,287,*7C
2013-04-02 22:57:29.019456;$GPGSV,3,2,10,03,51,172,33,19,26,178,34,07,16,297,,31,14,109,23*7D
2013-04-02 22:57:29.027854;$GPGSV,3,3,10,21,10,067,30,10,08,308,*7A
2013-04-02 22:57:29.141289;$GPRMC,225728.000,A,4530.4205,N,07334.7011,W,0.88,111.16,020413,,,A*73
2013-04-02 22:57:29.978883;$GPGGA,225729.000,4530.4207,N,07334.7010,W,1,07,1.8,92.1,M,-31.9,M,,0000*53
2013-04-02 22:57:29.992087;$GPGSA,A,3,31,03,21,06,23,19,16,,,,,,2.7,1.8,2.0*36
2013-04-02 22:57:30.006263;$GPRMC,225729.000,A,4530.4207,N,07334.7010,W,0.33,102.93,020413,,,A*7E
2013-04-02 22:57:30.978687;$GPGGA,225730.000,4530.4210,N,07334.7014,W,1,07,1.8,92.2,M,-31.9,M,,0000*5A
2013-04-02 22:57:30.991824;$GPGSA,A,3,31,03,21,06,23,19,16,,,,,,2.7,1.8,2.0*36
2013-04-02 22:57:31.005699;$GPRMC,225730.000,A,4530.4210,N,07334.7014,W,0.58,99.49,020413,,,A*4D
2013-04-02 22:57:31.978793;$GPGGA,225731.000,4530.4213,N,07334.7021,W,1,07,1.8,91.9,M,-31.9,M,,0000*56
2013-04-02 22:57:31.991997;$GPGSA,A,3,31,03,21,06,23,19,16,,,,,,2.7,1.8,2.0*36
2013-04-02 22:57:32.005904;$GPRMC,225731.000,A,4530.4213,N,07334.7021,W,0.48,93.32,020413,,,A*4E
2013-04-02 22:57:32.978856;$GPGGA,225732.000,4530.4218,N,07334.7031,W,1,07,1.8,91.0,M,-31.9,M,,0000*56
2013-04-02 22:57:32.992142;$GPGSA,A,3,31,03,21,06,23,19,16,,,,,,2.7,1.8,2.0*36
2013-04-02 22:57:33.006288;$GPRMC,225732.000,A,4530.4218,N,07334.7031,W,0.28,148.33,020413,,,A*77
2013-04-02 22:57:33.979214;$GPGGA,225733.000,4530.4223,N,07334.7041,W,1,06,1.9,90.5,M,-31.9,M,,0000*5C
2013-04-02 22:57:33.991885;$GPGSA,A,3,31,03,21,06,23,19,,,,,,,3.0,1.9,2.3*35
2013-04-02 22:57:34.005303;$GPGSV,3,1,10,16,71,039,12,06,59,133,23,23,58,235,21,13,54,287,*7D
2013-04-02 22:57:34.018899;$GPGSV,3,2,10,03,51,172,33,19,26,178,34,07,16,297,,31,14,109,22*7C
2013-04-02 22:57:34.027327;$GPGSV,3,3,10,21,10,067,25,10,08,308,*7E
2013-04-02 22:57:34.135422;$GPRMC,225733.000,A,4530.4223,N,07334.7041,W,0.22,285.68,020413,,,A*7F
2013-04-02 22:57:34.978755;$GPGGA,225734.000,4530.4227,N,07334.7047,W,1,06,1.9,90.2,M,-31.9,M,,0000*5E
2013-04-02 22:57:34.991354;$GPGSA,A,3,31,03,21,06,23,19,,,,,,,3.0,1.9,2.3*35
2013-04-02 22:57:35.005328;$GPRMC,225734.000,A,4530.4227,N,07334.7047,W,0.76,96.51,020413,,,A*41
2013-04-02 22:57:35.978917;$GPGGA,225735.000,4530.4232,N,07334.7057,W,1,06,1.9,89.2,M,-31.9,M,,0000*52
2013-04-02 22:57:35.991674;$GPGSA,A,3,31,03,21,06,23,19,,,,,,,3.0,1.9,2.3*35
2013-04-02 22:57:36.005762;$GPRMC,225735.000,A,4530.4232,N,07334.7057,W,0.24,103.68,020413,,,A*75
2013-04-02 22:57:36.978867;$GPGGA,225736.000,4530.4238,N,07334.7068,W,1,06,1.9,87.8,M,-31.9,M,,0000*53
2013-04-02 22:57:36.991525;$GPGSA,A,3,31,03,21,06,23,19,,,,,,,3.0,1.9,2.3*35
2013-04-02 22:57:37.005667;$GPRMC,225736.000,A,4530.4238,N,07334.7068,W,0.39,303.81,020413,,,A*79
2013-04-02 22:57:37.946995;$GPGGA,225737.000,4530.4243,N,07334.7078,W,1,06,1.9,86.8,M,-31.9,M,,0000*5E
2013-04-02 22:57:37.959766;$GPGSA,A,3,31,03,21,06,23,19,,,,,,,3.0,1.9,2.3*35
2013-04-02 22:57:37.973637;$GPRMC,225737.000,A,4530.4243,N,07334.7078,W,0.12,80.25,020413,,,A*4A
2013-04-02 22:57:38.955653;$GPGGA,225738.000,4530.4247,N,07334.7083,W,1,06,1.9,86.2,M,-31.9,M,,0000*5B
2013-04-02 22:57:38.968819;$GPGSA,A,3,31,03,21,06,23,19,,,,,,,3.0,1.9,2.3*35
2013-04-02 22:57:38.981887;$GPGSV,3,1,10,16,71,039,,06,59,133,22,23,58,235,22,13,54,287,*7C
2013-04-02 22:57:38.995381;$GPGSV,3,2,10,03,51,172,33,19,26,178,34,07,16,297,,31,14,109,22*7C
2013-04-02 22:57:39.003889;$GPGSV,3,3,10,21,10,067,25,10,08,308,*7E
2013-04-02 22:57:39.125164;$GPRMC,225738.000,A,4530.4247,N,07334.7083,W,0.46,101.22,020413,,,A*7B
2013-04-02 22:57:39.995097;$GPGGA,225739.000,4530.4252,N,07334.7088,W,1,06,1.9,86.2,M,-31.9,M,,0000*55
2013-04-02 22:57:40.007761;$GPGSA,A,3,31,03,21,06,23,19,,,,,,,3.0,1.9,2.3*35
2013-04-02 22:57:40.021993;$GPRMC,225739.000,A,4530.4252,N,07334.7088,W,0.42,315.26,020413,,,A*72
2013-04-02 22:57:40.960436;$GPGGA,225740.000,4530.4255,N,07334.7091,W,1,06,2.0,85.9,M,-31.9,M,,0000*56
2013-04-02 22:57:40.973072;$GPGSA,A,3,31,03,21,06,23,19,,,,,,,3.0,2.0,2.3*3F
2013-04-02 22:57:40.987030;$GPRMC,225740.000,A,4530.4255,N,07334.7091,W,0.12,23.01,020413,,,A*45
2013-04-02 22:57:41.995684;$GPGGA,225741.000,4530.4260,N,07334.7098,W,1,06,2.0,85.3,M,-31.9,M,,0000*52
2013-04-02 22:57:42.017348;$GPGSA,A,3,31,03,21,06,23,19,,,,,,,3.0,2.0,2.3*3F
2013-04-02 22:57:42.037050;$GPRMC,225741.000,A,4530.4260,N,07334.7098,W,0.15,345.79,020413,,,A*70
2013-04-02 22:57:42.978607;$GPGGA,225742.000,4530.4265,N,07334.7103,W,1,06,2.0,85.5,M,-31.9,M,,0000*51
2013-04-02 22:57:42.996923;$GPGSA,A,3,31,03,21,06,23,19,,,,,,,3.0,2.0,2.3*3F
2013-04-02 22:57:43.033684;$GPRMC,225742.000,A,4530.4265,N,07334.7103,W,0.76,308.88,020413,,,A*77
2013-04-02 22:57:43.978928;$GPGGA,225743.000,4530.4268,N,07334.7107,W,1,06,2.0,85.2,M,-31.9,M,,0000*5E
2013-04-02 22:57:43.991621;$GPGSA,A,3,31,03,21,06,23,19,,,,,,,3.0,2.0,2.3*3F
2013-04-02 22:57:44.004792;$GPGSV,3,1,10,16,71,039,,06,59,133,22,23,58,235,23,13,54,287,*7D
2013-04-02 22:57:44.026722;$GPGSV,3,2,10,03,51,172,33,19,26,178,35,07,16,297,,31,14,109,21*7E
2013-04-02 22:57:44.042893;$GPGSV,3,3,10,21,10,067,26,10,08,308,*7D
2013-04-02 22:57:44.124181;$GPRMC,225743.000,A,4530.4268,N,07334.7107,W,0.80,308.81,020413,,,A*7F
2013-04-02 22:57:44.978863;$GPGGA,225744.000,4530.4270,N,07334.7110,W,1,06,2.0,84.9,M,-31.9,M,,0000*5C
2013-04-02 22:57:44.991606;$GPGSA,A,3,31,03,21,06,23,19,,,,,,,3.0,2.0,2.3*3F
2013-04-02 22:57:45.005803;$GPRMC,225744.000,A,4530.4270,N,07334.7110,W,0.23,346.01,020413,,,A*7C
2013-04-02 22:57:45.978138;$GPGGA,225745.000,4530.4274,N,07334.7119,W,1,06,2.0,83.6,M,-31.9,M,,0000*58
2013-04-02 22:57:45.990914;$GPGSA,A,3,31,03,21,06,23,19,,,,,,,3.0,2.0,2.3*3F
2013-04-02 22:57:46.005023;$GPRMC,225745.000,A,4530.4274,N,07334.7119,W,0.58,295.23,020413,,,A*73
2013-04-02 22:57:46.978815;$GPGGA,225746.000,4530.4278,N,07334.7128,W,1,06,2.0,82.5,M,-31.9,M,,0000*57
2013-04-02 22:57:46.991517;$GPGSA,A,3,31,03,21,06,23,19,,,,,,,3.0,2.0,2.3*3F
2013-04-02 22:57:47.005657;$GPRMC,225746.000,A,4530.4278,N,07334.7128,W,0.83,306.22,020413,,,A*72
2013-04-02 22:57:47.978716;$GPGGA,225747.000,4530.4275,N,07334.7123,W,1,06,2.0,82.5,M,-31.9,M,,0000*50
2013-04-02 22:57:47.991506;$GPGSA,A,3,31,03,21,06,23,19,,,,,,,3.0,2.0,2.3*3F
2013-04-02 22:57:48.005764;$GPRMC,225747.000,A,4530.4275,N,07334.7123,W,0.19,326.36,020413,,,A*71
2013-04-02 22:57:48.979178;$GPGGA,225748.000,4530.4272,N,07334.7120,W,1,05,2.2,82.0,M,-31.9,M,,0000*5F
2013-04-02 22:57:48.991473;$GPGSA,A,3,03,21,06,23,19,,,,,,,,3.2,2.2,2.3*3D
2013-04-02 22:57:49.004598;$GPGSV,3,1,10,16,71,039,,06,59,133,22,23,58,235,24,13,54,287,*7A
2013-04-02 22:57:49.018140;$GPGSV,3,2,10,03,51,172,34,19,26,178,35,07,16,297,,31,14,109,19*72
2013-04-02 22:57:49.026643;$GPGSV,3,3,10,21,10,067,27,10,08,308,*7C
2013-04-02 22:57:49.124999;$GPRMC,225748.000,A,4530.4272,N,07334.7120,W,0.48,117.32,020413,,,A*7A
2013-04-02 22:57:49.986174;$GPGGA,225749.000,4530.4269,N,07334.7118,W,1,05,2.2,81.1,M,-31.9,M,,0000*5D
2013-04-02 22:57:49.998498;$GPGSA,A,3,03,21,06,23,19,,,,,,,,3.2,2.2,2.3*3D
2013-04-02 22:57:50.012674;$GPRMC,225749.000,A,4530.4269,N,07334.7118,W,0.13,185.09,020413,,,A*77
2013-04-02 22:57:50.978826;$GPGGA,225750.000,4530.4266,N,07334.7115,W,1,05,2.2,80.6,M,-31.9,M,,0000*51
2013-04-02 22:57:50.991114;$GPGSA,A,3,03,21,06,23,19,,,,,,,,3.2,2.2,2.3*3D
2013-04-02 22:57:51.005301;$GPRMC,225750.000,A,4530.4266,N,07334.7115,W,0.12,149.90,020413,,,A*7C
2013-04-02 22:57:51.978523;$GPGGA,225751.000,4530.4264,N,07334.7114,W,1,05,2.2,80.3,M,-31.9,M,,0000*56
2013-04-02 22:57:51.990849;$GPGSA,A,3,03,21,06,23,19,,,,,,,,3.2,2.2,2.3*3D
2013-04-02 22:57:52.005013;$GPRMC,225751.000,A,4530.4264,N,07334.7114,W,0.04,260.96,020413,,,A*77
